id;title;author;authorId;description;img;longitude;latitude;begin;ending;category;subcategories
1189;The Madrid Edition;DemoEM;1189;El edificio que albergaba el Monte de Piedad, ubicado en la plaza de las Descalzas, deja de ser un lugar de empeños, para convertirse en un alojamiento de lujo. Para su nuevo uso ha sido completamente renovado, pero se ha conservado en su facha;http://www.esmadrid.com/sites/default/files/recursosturisticos/alojamientos/the-madrid-edition-final-rendering-exterior-3-scaled_1_0.jpg;-3.706468100000;40.418273900000;;;Accommodation;Hoteles,
1190;Oxygen Hostel;DemoEM;1190;En una inmejorable situación, muy cerca de Atocha y del Paseo del Arte, se encuentra este hotel cápsula, el primero en ofrecer un estilo&nbsp,de alojamiento&nbsp,futurista y low cost en Madrid.Disponen de 22 cápsulas, 10 dobles y 12 sencillas, ;http://www.esmadrid.com/sites/default/files/recursosturisticos/alojamientos/oxigen_hostle.png;-3.692084400000;40.403528800000;;;Accommodation;Hostales,
1191;Canopy by Hilton Madrid Castellana ;DemoEM;1191;Canopy by Hilton Madrid Castellana está situado en la plaza Carlos Trías Bertrán, en pleno barrio de la Castellana, muy cerca del Estadio Santiago Bernabéu y del complejo AZCA.Este hotel boutique, perteneciente a la marca lifestyle de Hilton, i;http://www.esmadrid.com/sites/default/files/recursosturisticos/alojamientos/canopy_hilton-m_yllera-157.jpg;-3.693585400000;40.451381600000;;;Accommodation;Hoteles,
1192;Atocha Hotel Madrid, Tapestry Collection by Hilton;DemoEM;1192;A unos pasos del Paseo del Arte y de la estación de Atocha, se encuentra este alojamiento&nbsp,de la marca hotelera Tapestry by Hilton.Este hotel boutique, el primero de la marca Tapestry que se instala en España y fuera de América, cuenta con ;http://www.esmadrid.com/sites/default/files/recursosturisticos/alojamientos/sin_titulo.png;-3.695301100000;40.410605900000;;;Accommodation;Hoteles,
1193;Hard Rock Hotel Madrid;DemoEM;1193;A unos pasos de la Estación de Atocha y el Paseo del Arte, tiene su ubicación el nuevo hotel de la cadena Hard Rock Internacional.Este cuatro estrellas, en el que la música tiene un especial protagonismo, cuenta con 161 habitaciones y suites, i;http://www.esmadrid.com/sites/default/files/recursosturisticos/alojamientos/hard_rock_hotel_15.png;-3.695527500000;40.406521900000;;;Accommodation;Hoteles,
1194;Hotel Novotel Madrid City Las Ventas ;DemoEM;1194;Novotel Madrid City las Ventas es un hotel dinámico y cosmopolita&nbsp,situado muy cerca del aeropuerto y de IFEMA MADRID y con una estupenda comunicación con&nbsp,Madrid centro.Sus 156 habitaciones son espaciosas y de diseño contemporáneo. Tod;http://www.esmadrid.com/sites/default/files/recursosturisticos/alojamientos/5978-46.jpg;-3.657559700000;40.441308900000;;;Accommodation;Hoteles,
1195;Pestana CR7 Gran V&iacute,a Madrid;DemoEM;1195;La Gran Vía madrileña ha sido enclave escogido para la apertura del primer hotel de Cristiano Ronaldo fuera de Portugal.&nbsp,Este edificio de 1920 totalmente rehabilitado, cuenta con 168 habitaciones, divididas en nueve categorías y equipadas ;http://www.esmadrid.com/sites/default/files/recursosturisticos/alojamientos/gran-via-madrid-rooftop-render.jpg;-3.703284800000;40.419955600000;;;Accommodation;Hoteles,
1196;Four Seasons Hotel Madrid;DemoEM;1196;Four Seasons Hotel Madrid está ubicado en el Complejo Canalejas, un espacio reformado de más de&nbsp,50 000 m2 donde anteriormente se situaban siete edificios históricos pertenecientes a antiguos bancos. De ellos, se conservan más de 3700 artef;http://www.esmadrid.com/sites/default/files/recursosturisticos/alojamientos/four_seasons_madrid_gym_-_copia.jpg;-3.700388000000;40.417008900000;;;Accommodation;Hoteles,
1197;Apartahotel Las Matas Tartesos;DemoEM;1197;Este alojamiento forma parte de los hoteles de guardia de la Comunidad de Madrid considerados como servicio esencial según la Orden TMA/305/2020 de 30 de marzo, del Ministerio de Transportes, Movilidad y Agenda Urbana.Situados en Las Rozas, loc;http://www.esmadrid.com/sites/default/files/recursosturisticos/alojamientos/aparthotel_tartesos.jpg;-3.890689000000;40.531696400000;;;Accommodation;Apartahoteles,
1198;Hotel Las Gacelas;DemoEM;1198;Este alojamiento forma parte de los hoteles de guardia de la Comunidad de Madrid considerados como servicio esencial según la Orden TMA/305/2020 de 30 de marzo, del Ministerio de Transportes, Movilidad y Agenda Urbana.&nbsp,En plena naturaleza,;http://www.esmadrid.com/sites/default/files/recursosturisticos/alojamientos/hotel_las_gacelas_6.jpg;-3.994158000000;40.710999500000;;;Accommodation;Hoteles,
1199;Apartamentos Plaza de Santiago;DemoEM;1199;Este alojamiento forma parte de los hoteles de guardia de la Comunidad de Madrid considerados como servicio esencial según la Orden TMA/305/2020 de 30 de marzo, del Ministerio de Transportes, Movilidad y Agenda Urbana.Este edificio de 45 aparta;http://www.esmadrid.com/sites/default/files/recursosturisticos/alojamientos/apartamentos_plaza_santiago_3.jpg;-3.700417400000;40.245518600000;;;Accommodation;Apartahoteles,
1200;Apartahotel TH Las Rozas;DemoEM;1200;Este alojamiento forma parte de los hoteles de guardia de la Comunidad de Madrid considerados como servicio esencial según la Orden TMA/305/2020 de 30 de marzo, del Ministerio de Transportes, Movilidad y Agenda Urbana.Ubicado a 7 km de las Roza;http://www.esmadrid.com/sites/default/files/recursosturisticos/alojamientos/th_las_rozas4.png;-3.856662800000;40.484121100000;;;Accommodation;Apartahoteles,
1201;Apartamentos Suites Florida;DemoEM;1201;Este alojamiento forma parte de los hoteles de guardia de la Comunidad de Madrid considerados como servicio esencial según la Orden TMA/305/2020 de 30 de marzo, del Ministerio de Transportes, Movilidad y Agenda Urbana.En un enclave estratégico,;http://www.esmadrid.com/sites/default/files/recursosturisticos/alojamientos/apartamentos_suites_florida_1.png;-3.582653300000;40.449062300000;;;Accommodation;
1202;Apartamentos Suites Aeropuerto;DemoEM;1202;Este alojamiento forma parte de los hoteles de guardia de la Comunidad de Madrid considerados como servicio esencial según la Orden TMA/305/2020 de 30 de marzo, del Ministerio de Transportes, Movilidad y Agenda Urbana.&nbsp,En una situación est;http://www.esmadrid.com/sites/default/files/recursosturisticos/alojamientos/apartamentos_suites_aeropuerto_1.png;-3.583444300000;40.446415000000;;;Accommodation;
1203;Tryp Madrid Airport Suites;DemoEM;1203;Este alojamiento forma parte de los hoteles de guardia de la Comunidad de Madrid considerados como servicio esencial según la Orden TMA/305/2020 de 30 de marzo, del Ministerio de Transportes, Movilidad y Agenda Urbana.El Complejo TRYP Madrid Ai;http://www.esmadrid.com/sites/default/files/recursosturisticos/alojamientos/tryp_5.png;-3.543607400000;40.445569200000;;;Accommodation;Hostales,
1204;Room Mate Macarena;DemoEM;1204;Situado&nbsp,en plena Gran Vía madrileña, y diseñado por el&nbsp, arquitecto y diseñador Tomás Alía, este hotel cuenta con 130 habitaciones, divididas en 5 categorías: standard, standard superior, standard con vistas, superior con vistas y suit;http://www.esmadrid.com/sites/default/files/recursosturisticos/alojamientos/room_mate.jpg;-3.706897000000;40.420589000000;;;Accommodation;Hoteles,
1205;Hotel Riu Plaza Espa&ntilde,a;DemoEM;1205;Situado en el emblemático Edificio España, entre la Gran Vía y la calle Princesa, se encuentra este lujoso hotel de cuatro estrellas perteneciente a la cadena hotelera RIU Hotels &amp, Resorts, de 27 plantas y 583 habitaciones, que ofrece unas ;http://www.esmadrid.com/sites/default/files/recursosturisticos/alojamientos/hotel_riu_10.jpg;-3.711015474118;40.423924002208;;;Accommodation;Hoteles,
1206;Bluesock Madrid;DemoEM;1206;Ubicado en un edificio histórico de la Gran Vía, próximo a la Plaza de Cibeles, este alojamiento del grupo hotelero Carrís ocupa tres plantas que se caracterizan por el diseño y la modernidad. El albergue cuenta con 33 habitaciones, repartidas ;http://www.esmadrid.com/sites/default/files/recursosturisticos/alojamientos/bluesock.jpg;-3.697880200000;40.419516700000;;;Accommodation;Albergues,Hostales,
1207;Aloft Gran V&iacute,a Madrid;DemoEM;1207;Perteneciente a la división Aloft Hotels de la cadena hotelera Marriott, este alojamiento de cuatro estrellas está situado junto a la Plaza de Callao y la Gran Vía. Construido en un antiguo edificio de oficinas, el estilo urbano de su arquitect;http://www.esmadrid.com/sites/default/files/recursosturisticos/alojamientos/aloft.jpeg;-3.707138700000;40.420307800000;;;Accommodation;Hoteles,
1208;Pestana Plaza Mayor;DemoEM;1208;Situado en la Casa de la Carnicería y en una antigua estación de bomberos, en plena Plaza Mayor, este hotel de lujo de cuatro estrellas ofrece la posibilidad de alojarse en el corazón del Madrid de los Austrias, próximo a los principales monume;http://www.esmadrid.com/sites/default/files/recursosturisticos/alojamientos/pestana_plaza_mayor_8.jpg;-3.707053600000;40.414766800000;;;Accommodation;Hoteles,
1209;B&amp,B Hotel Madrid Centro Puerta del Sol;DemoEM;1209;Próximo a la céntrica Puerta del Sol se encuentra este hotel de tres estrellas que dispone de 74 habitaciones con un diseño arquitectónico innovador. Cuenta con un moderno lobby lounge con café e infusiones las 24 horas y wifi gratis. En su azo;http://www.esmadrid.com/sites/default/files/recursosturisticos/alojamientos/bb_hotel_madrid_centro_puerta_del_sol_5.jpg;-3.702557900000;40.417564300000;;;Accommodation;Hoteles,
1210;CoolRooms Atocha;DemoEM;1210;Ubicado dentro de una majestuosa Casa Palacio de 1852 del Barrio de las Letras, este hotel de lujo de cuatro estrellas forma parte de la marca española CoolRooms, que nace con la misión de recuperar espacios emblemáticos de las ciudades.El hote;http://www.esmadrid.com/sites/default/files/recursosturisticos/alojamientos/coolrooms_atocha.jpg;-3.701095100000;40.413214200000;;;Accommodation;Hoteles,
1211;Heritage Madrid Hotel;DemoEM;1211;Este hotel de cinco estrellas se encuentra ubicado en un edificio declarado como Patrimonio Histórico, en el exclusivo Barrio de Salamanca. Decorado de manera clásica y con un servicio exquisito, forma parte, además, de la prestigiosa asociació;http://www.esmadrid.com/sites/default/files/recursosturisticos/alojamientos/heritage_7.jpg;-3.678943800000;40.434877000000;;;Accommodation;Hoteles,
1212;Generator Hostel Madrid;DemoEM;1212;Entre las calles de Silva y San Bernardo, próximo a la Gran Vía, Generator Madrid es un hostal ubicado en un edificio de 1930 que alojó, en su momento, una antigua gasolinera. Cuenta con 5 cinco plantas en las que se ha buscado la conjunción de;http://www.esmadrid.com/sites/default/files/recursosturisticos/alojamientos/generator_madrid.jpg;-3.708101900000;40.420798700000;;;Accommodation;Hostales,
1213;Hotel Icon Casona 1900 by Petit Palace;DemoEM;1213;Este hotel boutique, de la cadena Petit Palace, se encuentra situado en un edificio del siglo XIX en el Barrio de Salamanca, uno de los más exclusivos de la ciudad. Cuenta con una decoración que fusiona el art deco y el art noveau, con referenc;http://www.esmadrid.com/sites/default/files/recursosturisticos/alojamientos/icon_casona_1900.jpg;-3.685861538827;40.429130941737;;;Accommodation;Hoteles,
1214;Poshtel LaNave;DemoEM;1214;Una antigua nave industrial rehabilitada del centro de Madrid alberga este moderno hostal en el que su propietaria, Elena Alonso, busca que el cliente se sienta como en casa, a través de espacios cómodos, con luz natural y todos los servicios q;http://www.esmadrid.com/sites/default/files/recursosturisticos/alojamientos/phostel_lanave_3.jpg;-3.715357600000;40.421914700000;;;Accommodation;Hostales,
1215;NH Collection Madrid Gran V&iacute,a;DemoEM;1215;En pleno corazón de la Gran Vía se encuentra este hotel de la cadena NH, un alojamiento de cuatro estrellas desde el que se puede disfrutar de todo el ocio y gastronomía que ofrece una de las principales arterias de Madrid. Además, está perfect;http://www.esmadrid.com/sites/default/files/recursosturisticos/alojamientos/nh_collection_madrid_gran_via.jpg;-3.701277700000;40.419813100000;;;Accommodation;Hoteles,
1216;Barcel&oacute, Imagine;DemoEM;1216;Situado en el antiguo Foxá 32, en la zona norte del Paseo de la Castellana y junto a la estación de Chamartín, este hotel urbano de la cadena Barceló ofrece un alojamiento de cinco estrellas en el que se consigue un perfecto equilibrio entre el;http://www.esmadrid.com/sites/default/files/recursosturisticos/alojamientos/barcelo_imagine.jpg;-3.685238510370;40.470196157478;;;Accommodation;Hoteles,
1217;Plaza Espa&ntilde,a Skyline by Bemate;DemoEM;1217;Muy cerca de la Plaza de España y frente al Templo de Debod se encuentra este edificio de apartamentos de 3.500 metros cuadrados perteneciente a la compañía Be Mate, presidida por Kike Sarasola. Construido en 2017, a la vanguardia en diseño y s;http://www.esmadrid.com/sites/default/files/recursosturisticos/alojamientos/plaza_de_espana_skyline.jpg;-3.715398000000;40.422468700000;;;Accommodation;Apartahoteles,
1218;Gran Hotel Ingl&eacute,s;DemoEM;1218;Este lujoso hotel de cinco estrellas de la cadena mallorquina de exclusivos hoteles boutique, Hidden Away Hotels, fue el primero que tuvo Madrid en su categoría, cuando abrió en 1886. También fue el primero en contar con un restaurante en su in;http://www.esmadrid.com/sites/default/files/recursosturisticos/alojamientos/suite.jpg;-3.699661000000;40.415962500000;;;Accommodation;Hoteles,
1219;VP Plaza Espa&ntilde,a Design;DemoEM;1219;Situado en la Plaza de España, a pocos metros del Palacio Real, la Catedral de la Almudena y el Templo de Debod, este hotel de cinco estrellas de la cadena VP es el buque insignia de la firma hotelera, debido a su exclusivo y contemporáneo dise;http://www.esmadrid.com/sites/default/files/recursosturisticos/alojamientos/terraza_ginkgo.jpg;-3.711751553711;40.422704185855;;;Accommodation;Hoteles,
1220;Hotel Dome Madrid;DemoEM;1220;Este hotel de cuatro estrellas se encuentra al norte de Madrid, en la zona de las Tablas, próximo a la zona empresarial de la ciudad, lo que le convierte en un alojamiento perfecto para los ejecutivos que acuden a la capital por motivos de trab;http://www.esmadrid.com/sites/default/files/recursosturisticos/alojamientos/hotel_dome_11.jpg;-3.678075400000;40.513148500000;;;Accommodation;Hoteles,
1221;Vitium Urban Suites;DemoEM;1221;Este vanguardista y cosmopolita hostal goza de una situación privilegiada, en pleno centro de la ciudad, desde donde poder disfrutar de la mejor oferta de ocio y gastronómica de Madrid. Cada detalle se cuida al máximo en unos espacios acogedore;http://www.esmadrid.com/sites/default/files/recursosturisticos/alojamientos/vitium_urban_suites_7.jpg;-3.709642800000;40.422417300000;;;Accommodation;Hostales,
1222;Bungalows Camping Alpha Madrid;DemoEM;1222;Situado a 12 kilómetros del centro de Madrid se encuentra este camping, vecino del famoso Cerro de los Ángeles (centro geográfico de la Península Ibérica), desde el que se puede disfrutar de unas buenas vistas del skyline madrileño.El camping c;http://www.esmadrid.com/sites/default/files/recursosturisticos/alojamientos/camping_alpha.jpg;-3.688960075378;40.317133566771;;;Accommodation;Camping,
1223;Hyatt Centric Gran V&iacute,a Madrid;DemoEM;1223;Este hotel de cinco estrellas, inaugurado en diciembre de 2017, se suma a la gran oferta hotelera de la Gran Vía madrileña. El establecimiento aspira a convertirse en el buque insignia de la firma estadounidense en Europa.El hotel se encuentra ;http://www.esmadrid.com/sites/default/files/recursosturisticos/restaurantes/hyatt_centric_gran_via_3.jpg;-3.703756100000;40.419988600000;;;Accommodation;Hoteles,
1224;La Casa de los Horrores;DemoEM;1224;Pasar miedo cerca de Madrid es posible gracias a esta casa rural temática próxima a la localidad de Aranjuez, situada en mitad del campo, en la que un mundo lleno de terror, sustos y sorpresas esperan a los visitantes que se atrevan a alojarse ;http://www.esmadrid.com/sites/default/files/recursosturisticos/alojamientos/la_casa_de_los_horrores_2.jpeg;-3.786463737488;39.938723048330;;;Accommodation;
1225;Axel Hotel Madrid;DemoEM;1225;El popular Barrio de las Letras acoge este hotel de la cadena Axel, situado en la calle Atocha. Un alojamiento con estilo, diseño, confort y ambiente cosmopolita, orientado al público gay pero con un marcado espíritu heterofriendly y urbano.Sus;http://www.esmadrid.com/sites/default/files/recursosturisticos/alojamientos/hotel_axel_madrid.jpg;-3.700584769249;40.413361264672;;;Accommodation;Hoteles,
1226;Hotel C&iacute,rculo Gran V&iacute,a, Autograph Collection;DemoEM;1226;Este lujoso hotel de cinco estrellas, exclusivo para adultos, se integra en el edificio del Casino Gran Vía Madrid, antigua sede del Círculo Mercantil e Industrial de la ciudad. Situado en pleno centro de la capital, supone la&nbsp,tercera inco;http://www.esmadrid.com/sites/default/files/recursosturisticos/alojamientos/hotel_circulo_gran_via_autograph_collection_6.jpg;-3.700832200000;40.420109700000;;;Accommodation;Hoteles,
1227;Barcel&oacute, Torre de Madrid;DemoEM;1227;Situado en la Torre de Madrid, en la Plaza de España, este moderno hotel de cinco estrellas cuenta con una de las ubicaciones más privilegiadas de la ciudad, céntrica como pocas y con excelentes vistas tanto de la Gran Vía como del Palacio Real;http://www.esmadrid.com/sites/default/files/recursosturisticos/alojamientos/barcelo-torre3.jpg;-3.712326200000;40.424369600000;;;Accommodation;Hoteles,
1228;Ibis Madrid Centro Las Ventas;DemoEM;1228;Al lado de la calle de Alcalá y frente al coso taurino madrileño, se encuentra este hotel del grupo Ibis. Un alojamiento perfecto para el turista gracias a su buena comunicacion con medios de transporte públicos (metro y autobuses) y a la cerca;http://www.esmadrid.com/sites/default/files/recursosturisticos/alojamientos/ventas5.jpg;-3.664230108261;40.430615637390;;;Accommodation;Hoteles,
1229;The Walt Madrid;DemoEM;1229;Situado en el corazón de Madrid y a tan sólo 150 metros de la Gran Vía, The Walt Madrid es un cómodo Bed &amp,Breakfast urbano que se caracteriza por su servicio y hospitalidad.Cuenta con 30 habitaciones, algunas con terrazas privadas, todas el;http://www.esmadrid.com/sites/default/files/recursosturisticos/alojamientos/_dsc6422.jpg;-3.702924996615;40.421159972462;;;Accommodation;Hostales,
1230;DoubleTree by Hilton Madrid - Prado;DemoEM;1230;DoubleTree es una de las marcas más importantes del grupo Hilton, que se instala en Madrid con este hotel en pleno Barrio de las Letras, a pocos metros de la estación de trenes de Atocha. El hotel combina el encanto de un edificio histórico con;http://www.esmadrid.com/sites/default/files/recursosturisticos/alojamientos/doubletree4.jpg;-3.696794600000;40.415170200000;;;Accommodation;Hoteles,
1231;T&oacute,tem Madrid;DemoEM;1231;En pleno corazón de Madrid, rodeado de las boutiques más refinadas y los grandes nombres de la moda, nace TÓTEM Madrid combinando la sofisticación y el dinamismo de la zona.Las habitaciones, situadas alrededor del patio del hotel, están destina;http://www.esmadrid.com/sites/default/files/recursosturisticos/alojamientos/totem3.jpg;-3.685430288315;40.426438239124;;;Accommodation;Hoteles,
1232;Vincci The Mint;DemoEM;1232;En plena Gran Vía madrileña se encuentra este&nbsp,hotel de 4 estrellas, un establecimiento que&nbsp,ofrece al visitante un concepto innovador y vanguardista liderado por el afamado interiorista Jaime Beriestain, quien ha respetado la esencia d;http://www.esmadrid.com/sites/default/files/recursosturisticos/infoturistica/mint6.jpg;-3.698562600000;40.419578500000;;;Accommodation;Hoteles,
1233;Only You Hotel Atocha;DemoEM;1233;Ubicado&nbsp,frente a la estación de trenes&nbsp,Madrid Puerta de Atocha, este hotel se encuentra a unos minutos del Paseo del Arte, con museos como el Thyssen-Bornemisza, el Prado, el Reina Sofía o&nbsp,el CaixaForum, y muy próximo a diferente;http://www.esmadrid.com/sites/default/files/recursosturisticos/alojamientos/hotel-atocha-08.jpg;-3.688120000000;40.407290000000;;;Accommodation;Hoteles,
1234;Eurostars Central;DemoEM;1234;El Hotel Eurostars Central es un alojamiento&nbsp,de vanguardia, diseño y con todos los servicios. Situado en el centro neurálgico de la vida madrileña, queda rodeado por las dinámicas zonas de Tribunal, Malasaña, Chueca y Chamberí.Abierto en m;http://www.esmadrid.com/sites/default/files/recursosturisticos/alojamientos/execentral3.jpg;-3.698533300000;40.427073500000;;;Accommodation;Hoteles,
1235;Novotel Madrid Center;DemoEM;1235;Este hotel, situado en el Barrio de Salamanca, a muy pocos minutos del Parque de El Retiro, es el más grande del mundo del grupo Novotel, así como es uno de&nbsp,los de mayor capacidad de Madrid en cuanto a la celebración de eventos. Cuenta con;http://www.esmadrid.com/sites/default/files/recursosturisticos/alojamientos/novotel_madrid_center_0.jpg;-3.672437667847;40.422072723627;;;Accommodation;Hoteles,
1236;Dear Hotel;DemoEM;1236;Este hotel de cuatro estrellas se encuentra situado a pocos metros de la Plaza de&nbsp,España, en pleno corazón de la ciudad. Se sitúa en&nbsp,un edificio histórico de 1945, completamente&nbsp,reformado, con un&nbsp,estilo atemporal que combina;http://www.esmadrid.com/sites/default/files/recursosturisticos/alojamientos/dear1.jpg;-3.710468709469;40.423357088519;;;Accommodation;Hoteles,
1237;Castilla II;DemoEM;1237;El&nbsp,Hostal Castilla II&nbsp,es un&nbsp,hostal tranquilo en el centro de Madrid, ubicado en un edificio histórico totalmente reformado, junto a la&nbsp,Puerta del Sol. Gracias a su&nbsp,privilegiada situación, los viajeros descubrirán la ciu;http://www.esmadrid.com/sites/default/files/recursosturisticos/alojamientos/castilla_ii-5.jpg;-3.704983592033;40.415797564532;;;Accommodation;Hostales,
1238;DormirDcine;DemoEM;1238;Este establecimiento ofrece un nuevo concepto de alojamiento cultural en pleno barrio de Salamanca, una zona perfecta para disfrutar de&nbsp,las compras, el ocio y la restauración. Con un total de 85 habitaciones,&nbsp,todas ellas&nbsp,han sido;http://www.esmadrid.com/sites/default/files/recursosturisticos/alojamientos/dc3_1423211741.019.jpg;-3.679371900000;40.436320100000;;;Accommodation;Hoteles,
1239;NH Madrid Alonso Mart&iacute,nez;DemoEM;1239;El hotel NH Madrid Alonso Martínez, antes conocido como NH Embajada, ha sido renovado en su totalidad en 2014. Un establecimiento de tres estrellas que combina el diseño, la elegancia y la funcionalidad de su interior con una preciosa fachada d;http://www.esmadrid.com/sites/default/files/recursosturisticos/alojamientos/nh7_1416311456.565.jpg;-3.696223497391;40.428725019095;;;Accommodation;Hoteles,
1240;The Hat;DemoEM;1240;Con las comodidades de un hotel y la cercanía de un hostel, The Hat ofrece un nuevo concepto de alojamiento en una de las zonas más céntricas y castizas de la ciudad. Ubicado en un palacete del siglo XIX rehabilitado, sus 42 habitaciones, que s;http://www.esmadrid.com/sites/default/files/recursosturisticos/alojamientos/portada_1416304744.971.jpg;-3.707070350647;40.414312922895;;;Accommodation;Albergues,
1241;URSO Hotel &amp, Spa Madrid;DemoEM;1241;Reabierto&nbsp,con todas&nbsp,las medidas de salud y seguridad en cumplimiento de las directrices de las autoridades españolas y la Organización Mundial de la Salud.Este hotel boutique de 5 estrellas está situado en el animado barrio de Chueca.;http://www.esmadrid.com/sites/default/files/recursosturisticos/alojamientos/hotel_urso_0.jpg;-3.698079586029;40.427005857836;;;Accommodation;Hoteles,
1242;One Shot 04;DemoEM;1242;El hotel está situado en el Barrio de Salamanca, en la Milla de Oro Madrileña, a tan solo unos minutos del Paseo&nbsp,de Recoletos, del Parque del Retiro y de la calle Serrano, con sus firmas de lujo de diseñadores nacionales e internacionales.;http://www.esmadrid.com/sites/default/files/recursosturisticos/alojamientos/one_shot_04.jpg;-3.691336512566;40.420925146334;;;Accommodation;Hoteles,
1243;Hotel Indigo;DemoEM;1243;El diseño de este hotel boutique está inspirado en la Gran Vía. Una calle con mucha historia que ha sido escenario de muchas películas, protestas, canciones etc. El hotel ha querido reflejar esta intensa vida en sus paredes y habitaciones. Y es;http://www.esmadrid.com/sites/default/files/recursosturisticos/alojamientos/hotel_indigo_gran_via_10.png;-3.707402944565;40.420706655201;;;Accommodation;Hoteles,
1244;One Shot Luchana 22;DemoEM;1244;Este hotel boutique&nbsp,está ubicado en el histórico Palacio de Luchana, construido en el año 1915 por el arquitecto madrileño Jesús Carrasco-Muñoz y Encina, en pleno corazón del castizo Barrio de Chamberí, junto a la Plaza de Olavide y a&nbsp;http://www.esmadrid.com/sites/default/files/recursosturisticos/alojamientos/one_shot_luchana_22_2.jpg;-3.700126111507;40.430221592821;;;Accommodation;Hoteles,
1245;One Shot Prado 23;DemoEM;1245;Ubicado en el Barrio de las Letras, el hotel One Shot Prado 23 nace con la vocación de combinar en su edificio los concepto de cultura, belleza y arte. Al cuidado interiorismo del estudio Las2Mercedes, este hotel cuenta con exposiciones de dife;http://www.esmadrid.com/sites/default/files/recursosturisticos/alojamientos/one1_1418296741.606.jpg;-3.698133400000;40.415108000000;;;Accommodation;Hoteles,
1246;Safestay Madrid;DemoEM;1246;Los albergues y hostales van asociados a veces con adjetivos como sucios o incómodos. En Safestay&nbsp,se han propuesto dar con la combinación ganadora: una mezcla de hotel y albergue donde ofrecen lo mejor de cada uno. Limpieza, comodidad y de;http://www.esmadrid.com/sites/default/files/recursosturisticos/alojamientos/uhostel2_1397468832.109.jpg;-3.698248565197;40.428008366952;;;Accommodation;Hostales,
1247;La posada de El Chafl&aacute,n;DemoEM;1247;Habitaciones funcionales, un servicio basado en la cercanía y una cocina de producto, definen el nuevo proyecto del chef Juan Pablo Felipe, una propuesta económica, sostenible y original, al más puro estilo de los hostels que triunfan en Lon;http://www.esmadrid.com/sites/default/files/recursosturisticos/alojamientos/laposadadelchaflan4_1397161950.336.png;-3.674466400000;40.466872400000;;;Accommodation;Hoteles,
1248;Senator Barajas;DemoEM;1248;Muy cerca del aeropuerto Adolfo Suárez Madrid-Barajas, la cadena Senator&nbsp,tiene este confortable hotel, perfecto para el viajero de negocios.&nbsp,Se trata de un&nbsp,hotel de 4 estrellas situado junto al aeropuerto de Adolfo Suárez Madrid-;http://www.esmadrid.com/sites/default/files/recursosturisticos/alojamientos/senator_2.jpg;-3.582505881786;40.458780778228;;;Accommodation;Hoteles,
1249;NH Collection Madrid Suecia;DemoEM;1249;Este hotel se encuentra ubicado en pleno centro de Madrid, junto al histórico Círculo de Bellas Artes, a pocos metros de las calles Alcalá y Gran Vía, alzándose en el completamente reformado Hotel NH Madrid Suecia, que fue hogar de Ernest ;http://www.esmadrid.com/sites/default/files/widgets/items/images/casa_suecia.jpg;-3.696282505989;40.417817196366;;;Accommodation;Hoteles,
1250;Exe Moncloa;DemoEM;1250;Situado a pocos minutos del Parque del Oeste y de la calle Princesa, el Exe Moncloa destaca por la modernidad y funcionalidad de sus espacios. El hotel cuenta con&nbsp,161 habitaciones amplias, modernas y luminosas, equipadas con TV de plasma, ;http://www.esmadrid.com/sites/default/files/recursosturisticos/alojamientos/exe3_1416315229.444.jpg;-3.717543500000;40.433731700000;;;Accommodation;Hoteles,
1251;Only You Boutique Hotel Madrid;DemoEM;1251;Only You Boutique Hotel Madrid&nbsp,es una sorprendente combinación de hotel boutique y la tendencia actual de establecimientos lifestyle. Situado en un histórico palacete del siglo XIX en pleno corazón de Madrid, cuenta con 70 habitaciones,;http://www.esmadrid.com/sites/default/files/recursosturisticos/alojamientos/only6_1416312802.745.jpg;-3.695704500000;40.422220900000;;;Accommodation;Hoteles,
1252;Hotel Travelodge Madrid Alcal&aacute,;DemoEM;1252;Hotel moderno y funcional &nbsp,ubicado junto a la&nbsp,Calle Alcalá, al Centro de Congresos y Convenciones (IFEMA) y al aeropuerto de Madrid-Barajas&nbsp,Adolfo Suárez. Está perfectamente comunicado con el centro a través del transporte públic;http://www.esmadrid.com/sites/default/files/recursosturisticos/alojamientos/hotel_travelodge_3.jpg;-3.631172000000;40.437075200000;;;Accommodation;Hoteles,
1253;Holiday Inn Madrid - Calle Alcal&aacute,;DemoEM;1253;Este hotel está situado en la conocida calle de Alcalá,&nbsp,a tan solo 15 minutos en metro del centro de Madrid y de todas sus famosas atracciones turísticas. Dispone de 261 habitaciones, incluyendo habitaciones con una o dos camas, ejecutivas;http://www.esmadrid.com/sites/default/files/recursosturisticos/alojamientos/holiday_inn_madrid_alcala_3.jpg;-3.632080600000;40.439347800000;;;Accommodation;Hoteles,
1254;Eurostars Plaza Mayor;DemoEM;1254;En pleno centro de Madrid, a 300 metros de la Plaza Mayor y de la Puerta del Sol, allí donde la capital muestra su lado más tradicional, asoma un nuevo hotel de diseño atrevido. El Eurostars Plaza Mayor está ubicado en el local que fue anti;http://www.esmadrid.com/sites/default/files/recursosturisticos/alojamientos/plaza4_1416314472.711.jpg;-3.703946300000;40.413030900000;;;Accommodation;Hoteles,
1255;Lapepa Chic B&amp,B;DemoEM;1255;Situado en pleno centro de la ciudad, muy cerca de la Gran Vía, este bed&amp,breakfast se caracteriza por ser bastante económico teniendo en cuenta la calidad de sus servicios y su ubicación. Desde la séptima planta de un edificio nouveau&nbsp,;http://www.esmadrid.com/sites/default/files/recursosturisticos/alojamientos/474538883_832013141117_adj.jpg;-3.695585131645;40.415828196408;;;Accommodation;Hoteles,
1256;Artistic B&amp,B;DemoEM;1256;Este Bed &amp, Breakfast está situado&nbsp,en la tercera planta de un edificio histórico del siglo XIX. Tras su&nbsp,completa renovación, realizada en 2011, Artistic B&amp,B ofrece un alojamiento cálido y acogedor, con todas las comodidades mod;http://www.esmadrid.com/sites/default/files/recursosturisticos/alojamientos/8896751_19220131405_adj.jpg;-3.698247894645;40.413876407516;;;Accommodation;Pensiones,
1257;Hotel Sardinero Madrid;DemoEM;1257;Ubicado en un edificio neoclásico&nbsp,de Chamberí, el&nbsp,Hotel Sardinero Madrid logra&nbsp,un equilibrio perfecto entre su histórico emplazamiento&nbsp,y sus modernas instalaciones, equipadas con las últimas tecnologías. Sus 65&nbsp,habitac;http://www.esmadrid.com/sites/default/files/recursosturisticos/alojamientos/09_1421409872.997.jpg;-3.695749500000;40.427898900000;;;Accommodation;Hoteles,
1258;Artrip Hotel;DemoEM;1258;No es fácil encontrar en el barrio de Lavapiés un hotel como este, moderno, atrevido y vanguardista, que ha sabido conjugar todos los detalles propios de los nuevos tiempos con la historia. El edificio en el que se ubica fue construido en el añ;http://www.esmadrid.com/sites/default/files/recursosturisticos/alojamientos/ArtripHotel1_1405004900.806.jpg;-3.700035900000;40.407191600000;;;Accommodation;Hoteles,
1259;Hotel Petit Palace Lealtad Plaza;DemoEM;1259;Este hotel boutique, situado a escasos metros del Paseo del Prado, es un alojamiento perfecto para el turismo familiar y de empresas, caracterizado por una atención personalizada y con servicios de gran calidad.&nbsp,&nbsp,El hotel cuenta con u;http://www.esmadrid.com/sites/default/files/recursosturisticos/alojamientos/lea5_1417173252.505.jpg;-3.691036105156;40.416787988123;;;Accommodation;Hoteles,
1260;Hotel Petit Palace Savoy Alfonso XII;DemoEM;1260;Este 4 estrellas es un ejemplo más de la exquisitez que caracteriza a&nbsp,la cadena Petit Palace High Tech, que tiene en la ubicación del establecimiento otro de sus puntos fuertes. Situado junto al parque de El Retiro y la Puerta de Alcalá, s;http://www.esmadrid.com/sites/default/files/recursosturisticos/alojamientos/savoy4_1417175118.389.jpg;-3.689335584641;40.417167816808;;;Accommodation;Hoteles,
1261;Hotel Petit Palace Santa B&aacute,rbara;DemoEM;1261;Hotel boutique totalmente reformado y ubicado en uno de los barrios más animados y céntricos de la ciudad, Las Salesas. Situado en un&nbsp,edificio decimonónico, antiguo palacio de los marqueses de Quintanar, el Petit Palace Santa Bárbara está ;http://www.esmadrid.com/sites/default/files/recursosturisticos/alojamientos/sant2_1418636355.377.jpg;-3.696341514587;40.426438239124;;;Accommodation;Hoteles,
1262;La Posada del Drag&oacute,n;DemoEM;1262;Construído en 1868 por el Marqués de Cubas como casa de huéspedes, este pintoresco hotel boutique, debe su nombre al dragón que había esculpido en la ya desaparecida Puerta de Moros (uno de los accesos del recinto amurallado de Madrid). Fue dem;http://www.esmadrid.com/sites/default/files/recursosturisticos/alojamientos/121690117_10160437221193345_8752052942364046623_n.jpg;-3.708570500000;40.413124800000;;;Accommodation;Hoteles,
1263;Catalonia Plaza Mayor;DemoEM;1263;Quizá no haya un lugar mejor para alojarse en todo Madrid, nada menos que la Plaza Mayor, en pleno centro, rodeada de bares de tapas, de cultura, de museos, de vida. Un hotel moderno, de diseño, con todas las comodidades: suelos de parqué, aire;http://www.esmadrid.com/sites/default/files/recursosturisticos/alojamientos/plaza4_1415273185.572.jpg;-3.700768700000;40.413128900000;;;Accommodation;Hoteles,
1264;Catalonia Atocha;DemoEM;1264;Vivir el centro de Madrid en estado puro, eso es lo que ofrece, entre otras cosas, este hotel de la cadena Catalonia, que ya cuenta con varios hoteles en la capital. En este caso en el Madrid de los Austrias, una de las zonas más turísticas y a;http://www.esmadrid.com/sites/default/files/recursosturisticos/alojamientos/catalonia_atocha_4.jpg;-3.697924017906;40.411858189077;;;Accommodation;Hoteles,
1265;Hotel NH Ribera del Manzanares;DemoEM;1265;La recién recuperada ribera del Manzanares ya comienza a ofrecer servicios y posibilidades de ocio, turísticas, de negocios etc. Entre estas se encuentra el nuevo hotel Ribera del Manzanares, de la cadena NH. Situado frente al nuevo paseo junto;http://www.esmadrid.com/sites/default/files/recursosturisticos/alojamientos/1909297969_3182011125420_adj.jpg;-3.721554279327;40.406323477313;;;Accommodation;Hoteles,
1266;Posada del Le&oacute,n de Oro;DemoEM;1266;Esta antigua Posada de finales del siglo XIX, situada en el centro del&nbsp,barrio de La Latina, a 100 metros de la Plaza Mayor, ha sido convertida en un hotel con encanto de diseño singular. Esto se hace visible en sus 17 amplias habitaciones,;http://www.esmadrid.com/sites/default/files/recursosturisticos/alojamientos/leo2_1418642653.392.jpg;-3.708535507321;40.413190740800;;;Accommodation;Hoteles,
1267;Hotel NH Collection Madrid Palacio de Tepa;DemoEM;1267;La cadena NH rehabilitó este antiguo palacio madrileño para instalar un hotel de lujo al lado de la Plaza de Santa Ana, en pleno Barrio de Las Letras. Un total de 85 habitaciones elegantemente decoradas que incluyen detalles de la arquitectura ;http://www.esmadrid.com/sites/default/files/recursosturisticos/alojamientos/NHPalaciodeTepa5_1404810335.943.png;-3.701579900000;40.413836800000;;;Accommodation;Hoteles,
1268;Suites 33;DemoEM;1268;En pleno centro de Madrid, junto a la Plaza de España, el Hotel Suites 33 es una buena&nbsp,opción, ya que está cerca de todo y&nbsp,ofrece, a la vez, la máxima comodidad&nbsp,en un ambiente tranquilo y agradable. El alojamiento ocupa un edific;http://www.esmadrid.com/sites/default/files/recursosturisticos/alojamientos/3_1418915928.12.jpg;-3.710495000000;40.422135400000;;;Accommodation;Hoteles,
1269;SHS Aeropuerto;DemoEM;1269;Hotel cerca del aeropuerto de Barajas con 80 amplias habitaciones, restaurante, sport-bar,&nbsp,zonas de aparcamiento y otros servicios complementarios y personalizados para viajeros del aeropuerto Adolfo Suarez&nbsp,Madrid-Barajas y para monta;http://www.esmadrid.com/sites/default/files/recursosturisticos/alojamientos/ae_1418904608.822.jpg;-3.548333000000;40.449258000000;;;Accommodation;Hoteles,
1270;Barajas Plaza;DemoEM;1270;El Hotel Barajas Plaza ofrece una inmejorable situación para el turismo de negocios y cuenta con&nbsp,todas las comodidades que los clientes mas exigentes puedan necesitar. Se encuentra situado cerca del&nbsp,aeropuerto&nbsp,Adolfo Suárez Madri;http://www.esmadrid.com/sites/default/files/recursosturisticos/alojamientos/barajas2.jpg;-3.577139400000;40.473062900000;;;Accommodation;Hoteles,
1271;Crowne Plaza Madrid Airport;DemoEM;1271;La cadena&nbsp,Crowne Plaza Hotels &amp, Resorts cuenta con este hotel situado a&nbsp,quince minutos del centro de la capital.&nbsp,Su magnífica ubicación lo sitúa también a cinco minutos de IFEMA y a nueve del aeropuerto. La marca Crowne Plaza;http://www.esmadrid.com/sites/default/files/recursosturisticos/alojamientos/crow4_1415871584.837.jpg;-3.542017936707;40.447240988852;;;Accommodation;Hoteles,
1272;Hotel  Nuevo Boston;DemoEM;1272;El Hotel Nuevo Boston es un hotel de negocios que ofrece modernas instalaciones, tanto en las habitaciones como en su Centro de Convenciones. Cercano al aeropuerto y a IFEMA, ofrece servicios como: Piscina exterior, salones de conferencias con ;http://www.esmadrid.com/sites/default/files/recursosturisticos/alojamientos/bos4_1417166384.68.jpg;-3.576800823212;40.449094346471;;;Accommodation;Hoteles,
1273;Tach by Clement Hoteles;DemoEM;1273;Los hoteles Clement nacen con la filosofía de hacer que los viajes de negocios se conviertan en viajes de placer. El Hotel Clement Barajas, situado a 3 minutos del aeropuerto y del IFEMA, está excelentemente comunicado con las principales vías ;http://www.esmadrid.com/sites/default/files/recursosturisticos/alojamientos/ta2_1419236594.647.jpg;-3.585369200000;40.472905800000;;;Accommodation;Hoteles,
1274;Agora Juan de Austria;DemoEM;1274;Situado entre Chamberí y el barrio de Malasaña, éste es un hotel tematizado en torno a la figura y personajes que influyeron en menor o mayor medida a lo largo de la vida de Juan de Austria. Así, todas sus habitaciones están decoradas según el ;http://www.esmadrid.com/sites/default/files/recursosturisticos/alojamientos/juan3_1417428172.973.jpg;-3.699241400000;40.432109400000;;;Accommodation;Hoteles,
1275;AC Atocha;DemoEM;1275;Hotel de diseño creado en 2010 y&nbsp,situado en el corazón de Madrid, a 200m de la Estación Puerta de Atocha, muy cercano al Paseo del Prado y al triángulo de los museos Thyssen, Prado y Reina Sofía. Equipado con salones de reunión para todo t;http://www.esmadrid.com/sites/default/files/recursosturisticos/alojamientos/hotel_ac_atocha_5.jpg;-3.690070200000;40.403859800000;;;Accommodation;Hoteles,
1276;Hotel Santo Domingo;DemoEM;1276;En un enclave privilegiado, muy cerca del Palacio de Oriente, este 4 estrellas ofrece un espacio de lujo, confort y originalidad en el centro de Madrid. El hotel se ubica en un edificio de 10 plantas, más solárium y piscina en la cubierta, y cu;http://www.esmadrid.com/sites/default/files/recursosturisticos/alojamientos/473733347_1532010144248_adj.jpg;-3.708356900000;40.420678800000;;;Accommodation;Hoteles,
1277;Hostal Gala;DemoEM;1277;Un hostal con servicios de hotel en pleno centro de Madrid, junto a la plaza de Callao y muy cerca de Sol: baño completo con ducha hidromasaje en todas las habitaciones, aire acondicionado, WIFI, servicio de tintorería.. El hostal Gala está pen;http://www.esmadrid.com/sites/default/files/recursosturisticos/alojamientos/hostalgala3_1417082318.973.jpg;-3.708194196224;40.419616230899;;;Accommodation;Hostales,
1278;Espahotel Gran V&iacute,a;DemoEM;1278;Este aparthotel ofrece a sus clientes un nuevo concepto de alojamiento en Madrid, en el que se fusionan el confort y los servicios propios de un hotel con las facilidades de una suite - apartamento, situado en plena Gran Vía, junto a la Plaza d;http://www.esmadrid.com/sites/default/files/recursosturisticos/alojamientos/granvia_1415955186.73.jpg;-3.709979206324;40.422617918079;;;Accommodation;Apartahoteles,
1279;The Principal Madrid Hotel;DemoEM;1279;Este moderno hotel boutique de lujo se encuentra&nbsp,situado en pleno centro de Madrid, muy cerca de la Gran Vía y de la Calle de Alcalá. Entre sus reclamos se encuentra una espectacular terraza y un ático en el que poder disfrutar de la alta ;http://www.esmadrid.com/sites/default/files/recursosturisticos/alojamientos/24_la_terraza.jpg;-3.697188900000;40.419357600000;;;Accommodation;Hoteles,
1280;Radisson Blu Hotel, Madrid Prado;DemoEM;1280;El Madrid Prado, el primer hotel Radisson Blu de la ciudad, ofrece elegantes habitaciones frente al famoso Museo del Prado y junto al centro cultural CaixaForum. Este hotel &ldquo,boutique&rdquo,, dotado de impresionantes espacios públicos y di;http://www.esmadrid.com/sites/default/files/recursosturisticos/alojamientos/rad4_1416403024.269.jpg;-3.694168925285;40.412519873231;;;Accommodation;Hoteles,
1281;Mayerling;DemoEM;1281;Un nuevo concepto de hotel para el centro de Madrid. En este caso se trata de un antiguo almacén textil en el centro, en el famoso barrio de los Austrias, convertido en un hotel de diseño con 22 habitaciones. La mezcla de historia y diseño cont;http://www.esmadrid.com/sites/default/files/recursosturisticos/alojamientos/mayerling1_1415279346.978.jpg;-3.704942900000;40.413449300000;;;Accommodation;Hoteles,
1282;Urban Sea Atocha 113;DemoEM;1282;Situado junto al triángulo del arte de&nbsp,Madrid, el&nbsp,Hotel Urban Sea Atocha 113 se encuentra a tan sólo 10 minutos de los mejores museos de la ciudad, como el Reina Sofía, el Thyssen-Bornemisza y el Museo del Prado, además del Jardín Bot;http://www.esmadrid.com/sites/default/files/recursosturisticos/alojamientos/237254377_113201015301_adj.jpg;-3.694608807564;40.410375502812;;;Accommodation;Hoteles,
1283;Axor Feria;DemoEM;1283;La cadena Axor ofrece este hotel especializado en la celebración de eventos que se encuentra situado muy cerca de la Feria de Madrid (IFEMA). Con salas multifunciones que pueden albergar hasta 200 personas, estos establecimientos se dirigen pot;http://www.esmadrid.com/sites/default/files/recursosturisticos/alojamientos/AxorFeria_1396004113.991.jpg;-3.583130836487;40.447461434947;;;Accommodation;Hoteles,
1284;Axor Barajas Plus;DemoEM;1284;La cadena Axor ofrece este hotel especializado en la celebración de eventos, que se encuentra situado muy cerca del Aeropuerto Adolfo Suárez Madrid - Barajas. Con salas multifunciones que pueden albergar hasta 200 personas, estos establecimient;http://www.esmadrid.com/sites/default/files/recursosturisticos/alojamientos/pis8835.jpg;-3.583012819290;40.447820678887;;;Accommodation;Hoteles,
1285;Oxum;DemoEM;1285;Este hostal es un lugar acogedor, confortable y moderno situado en el barrio de Chueca, en pleno centro de Madrid. Desde aquí podrás ir andando a los principales museos y a muchas de las más importantes zonas comerciales. El hostal ofrece habit;http://www.esmadrid.com/sites/default/files/recursosturisticos/alojamientos/ox2_1418299120.301.jpg;-3.699914600000;40.422020100000;;;Accommodation;Hostales,
1286;Apartosuites Jardines de Sabatini;DemoEM;1286;Este establecimiento combina los servicios de un hotel con las ventajas de un apartamento gracias a sus amplias habitaciones equipadas con cocinas completas. El Aparto Suites Jardines de Sabatini ofrece cómodos estudios y suites con capacidad p;http://www.esmadrid.com/sites/default/files/recursosturisticos/alojamientos/apartosuite_jardines_de_sabatini_5.jpg;-3.714907765389;40.420970069657;;;Accommodation;Apartahoteles,
1287;Mirador de Chamart&iacute,n;DemoEM;1287;Este hotel está situado en una tranquila zona de negocios del norte de Madrid, muy bien comunicada con el aeropuerto, IFEMA y el centro de la ciudad. De este modo, Mirador de Chamartín es idóneo tanto para viajes de negocios como para viajes de;http://www.esmadrid.com/sites/default/files/recursosturisticos/alojamientos/mira8_1417178884.775.jpg;-3.671085834503;40.482964227116;;;Accommodation;Hoteles,
1288;&Aacute,rtico;DemoEM;1288;Hostal situado en la zona de Moncloa, muy bien comunicado en trasporte público con el centro de la ciudad. Cuenta con 12&nbsp,habitaciones equipadas con aire acondicionado, televisión y baño privado con secador de pelo y ducha.;http://www.esmadrid.com/sites/default/files/recursosturisticos/alojamientos/artico_2.jpg;-3.715610100000;40.436438700000;;;Accommodation;Hostales,
1289;Splendid;DemoEM;1289;Este hostal de dos estrellas se encuentra en la 5&ordf, planta de un edificio histórico de la Gran Vía madrileña, una situación inmejorable para conocer la ciudad dada su cercanía a la Puerta del Sol, Plaza Mayor, la calle Alcalá y el Paseo del;http://www.esmadrid.com/sites/default/files/recursosturisticos/alojamientos/splendid_3.jpg;-3.700231800000;40.419757800000;;;Accommodation;Hostales,
1290;Felipe V;DemoEM;1290;Este hostal está situado en un edificio histórico de la Gran Vía, muy cerca de la Puerta del Sol y la Plaza Mayor. Perfectamente comunicado con el metro y varios autobuses, es una buena opción&nbsp,para poder conocer la ciudad dada su cercanía ;http://www.esmadrid.com/sites/default/files/recursosturisticos/alojamientos/hostal_felipe_v_3.jpg;-3.700161600000;40.419818300000;;;Accommodation;Hostales,
1291;Los &Aacute,ngeles;DemoEM;1291;El Hostal Los Ángeles es un elegante y confortable alojamiento ubicado en una zona céntrica de Madrid, junto a Cuatro Caminos. Se trata de un edificio construido en 1986 y reformado recientemente en invierno del 2016, aportando una decoración m;http://www.esmadrid.com/sites/default/files/recursosturisticos/alojamientos/hostal_los_angeles.jpg;-3.702055800000;40.447333000000;;;Accommodation;Hostales,
1292;Suites Barrio de Salamanca;DemoEM;1292;Estas suites están situadas en uno de los barrios más selectos de la ciudad, el lugar perfecto para descansar durante un viaje de negocios o durante uno de placer. Además, el barrio de Salamanca constituye una de las principales zonas comercial;http://www.esmadrid.com/sites/default/files/recursosturisticos/alojamientos/sa3_1418990526.689.jpg;-3.685717284679;40.436356584452;;;Accommodation;Hoteles,
1293;Hotel &Uacute,nico;DemoEM;1293;Este hotel se encuentra en un típico edificio madrileño del S. XIX que ha sido rehabilitado por Aurelio Rubio, respetando su valor histórico, dotándolo de toda la innovación y comodidad necesaria para hacer de él un referente en Madrid. Se encu;http://www.esmadrid.com/sites/default/files/recursosturisticos/alojamientos/799458645_2522010123115_adj.jpg;-3.686210800000;40.428461600000;;;Accommodation;Hoteles,
1294;Aparthotel Encasa;DemoEM;1294;El Aparthotel Encasa se encuentra en una ubicación privilegiada de la periferia de la ciudad de Madrid, rodeada de una completa red de carreteras (M-30, M-40, M-45, M-50, A-2 y A-3), y servicios de transporte público. En treinta minutos se pued;http://www.esmadrid.com/sites/default/files/recursosturisticos/alojamientos/hos6_1414757654.397.jpg;-3.591358100000;40.404695000000;;;Accommodation;Apartahoteles,
1295;Rofer;DemoEM;1295;Enclavado en una de las principales calles que llevan a la Plaza Mayor, el Hostal Rofer es un alojamiento sencillo en el que poder hospedarse en pleno centro de la ciudad sin gastarse mucho dinero.Sus habitaciones son acogedoras y están totalme;http://www.esmadrid.com/sites/default/files/recursosturisticos/alojamientos/hostal_rofer.jpg;-3.710927367210;40.408386282875;;;Accommodation;Hostales,
1296;Pensi&oacute,n Stella;DemoEM;1296;Esta pensión se encuentra situada en plena Gran Vía, centro neurálgico de la ciudad, en la que destaca tanto su oferta cultural como comercial, así como su amplia variedad de restaurantes y bares.Las habitaciones&nbsp,cuentan con televisión, ai;;-3.705348200000;40.420235300000;;;Accommodation;Hostales,
1297;Rico;DemoEM;1297;El barrio de Chueca acoge este hostal situado en la comercial calle de Fuencarral.Sus habitaciones cuentan con wifi gratuito, ventilador, nevera, televisión de pantalla plana, y algunas de ellas disponen de baño privado con secador de pelo y de;http://www.esmadrid.com/sites/default/files/recursosturisticos/alojamientos/hostal_rico.jpg;-3.700819462538;40.421998192956;;;Accommodation;Hostales,
1298;Matheu;DemoEM;1298;Próximo a la Puerta del Sol, se encuentra este hostal que cuenta con unas instalaciones acogedoras y un ambiente familiar.Sus habitaciones son amplias y están equipadas con baño privado, televisión y aire acondicionado.Dispone de recepción 24 h;http://www.esmadrid.com/sites/default/files/recursosturisticos/alojamientos/hostal_matheu.jpg;-3.701994900000;40.415973700000;;;Accommodation;Hostales,
1299;Patria;DemoEM;1299;Este hostal&nbsp,se encuentra situado en una zona privilegiada, a&nbsp,pocos metros de la Puerta del Sol, cerca de la Plaza Mayor,&nbsp,el Mercado de San Miguel, el Teatro Real, el Palacio Real y sus jardines, y la Catedral de la Almudena. Toda;http://www.esmadrid.com/sites/default/files/recursosturisticos/alojamientos/hostal_patria.jpg;-3.705974668264;40.416534767809;;;Accommodation;Hostales,
1300;Playa;DemoEM;1300;Este pequeño hostal se encuentra situado en una de las zonas más populares de Madrid, el barrio de Las Letras, muy&nbsp,cerca de los principales museos:&nbsp,Prado, Thyssen, Caixa Forum o&nbsp,Reina Sofía, y además rodeado de&nbsp,cines, teatro;http://www.esmadrid.com/sites/default/files/recursosturisticos/alojamientos/hostal_playa.jpg;-3.703172400000;40.416492400000;;;Accommodation;Hostales,
1301;Santa B&aacute,rbara;DemoEM;1301;Situado en la Plaza de Santa Bárbara, de la que recibe su nombre, este hostal ofrece habitaciones cómodas y sencillas a buen precio, en un emplazamiento céntrico y próximo a la comercial calle de Fuencarral y el popular barrio de Chueca.Este al;;-3.696502447128;40.427418297204;;;Accommodation;Hostales,
1302;Hostal Pacios;DemoEM;1302;En pleno centro de Madrid, a pocos metros de la Puerta del Sol y próximo al Paseo del Arte y la Estación de Atocha, se encuentra este sencillo hostal.El alojamiento dispone de ascensor, calefacción central, Wifi gratuito, consigna de equipaje (;http://www.esmadrid.com/sites/default/files/recursosturisticos/alojamientos/hostal_pacios_2.jpg;-3.701652288437;40.413385771061;;;Accommodation;Hostales,
1303;Hostal Oriente;DemoEM;1303;Hostal de tres estrellas situado en centro monumental de Madrid, con espectaculares vistas al&nbsp,Teatro Real. Esta ubicación permite que &nbsp,los huéspedes puedan llegar en pocos minutos a muchos de los encantos turísticos de la ciudad como&;http://www.esmadrid.com/sites/default/files/oriente.jpg;-3.708986600000;40.417839400000;;;Accommodation;Hostales,
1304;Naranjos I;DemoEM;1304;Situado en pleno centro de Madrid, entre las plazas de Tirso de Molina y Jacinto Benavente, el hostal Naranjos es una opción ideal para los que viajeros que deseen conocer los lugares más emblemáticos de la ciudad como el barrio de Las Letras c;http://www.esmadrid.com/sites/default/files/naranjos.jpg;-3.703823400000;40.412865600000;;;Accommodation;Hostales,
1305;Pensi&oacute,n Mollo;DemoEM;1305;La Pensión Mollo es el mejor recurso si quieres situarte en el centro de Madrid de forma económica. Su trato personalizado ofrece al cliente una solución a todas las peticiones con las que cuente y consigue atender a todas sus necesidades.&nbsp;http://www.esmadrid.com/sites/default/files/recursosturisticos/alojamientos/mollo_1394717884.876.jpg;-3.695276000000;40.410411000000;;;Accommodation;Pensiones,
1306;Casa de hu&eacute,spedes La Muralla;DemoEM;1306;Excelente ubicación y cuidado para que la estancia sea lo más satisfactoria posible. Las habitaciones están habilitadas para todas las épocas con aire acondicionado y calefacción. Un lugar en Madrid para pasar unos días en total condiciones de ;http://www.esmadrid.com/sites/default/files/recursosturisticos/alojamientos/hostal_las_murallas_.jpg;-3.701078300000;40.421512900000;;;Accommodation;Pensiones,
1307;Mendoza;DemoEM;1307;Este hostal se encuentra ubicado en plena Gran Vía, una de las calles más conocidas de la ciudad,&nbsp,repleta de ocio y negocio, con cines y teatros musicales,&nbsp,tiendas de grandes firmas y&nbsp,todo lo necesario para divertirse y entretene;http://www.esmadrid.com/sites/default/files/recursosturisticos/alojamientos/Mendoza_1395226715.959.jpg;-3.703856900000;40.419509000000;;;Accommodation;Pensiones,
1308;Hostal Ivor y Hostal Mayrit ;DemoEM;1308;Este hostal está situado en una de las calles más conocidas del centro de Madrid, la calle Arenal, un lugar ideal&nbsp,para todos aquellos que deseen&nbsp,visitar la ciudad sin necesidad de largos&nbsp,desplazamientos. Recientemente reformado, ;http://www.esmadrid.com/sites/default/files/recursosturisticos/alojamientos/hostal_ivor_.jpg;-3.707965600000;40.417632800000;;;Accommodation;Pensiones,
1309;Hostal Miguel &Aacute,ngel;DemoEM;1309;Hostal céntrico, familiar y muy bien comunicado con los principales atractivos turísticos y&nbsp,centros de negocios de la ciudad. Su barrio, Chueca, es uno de los más animados de la ciudad ya que está rodeado de tiendas, restaurantes, teatros ;http://www.esmadrid.com/sites/default/files/recursosturisticos/alojamientos/hostal_miguel_angel_.jpg;-3.698146700000;40.426146800000;;;Accommodation;Hostales,
1310;Marlasca;DemoEM;1310;Este hostal, situado a pocos metros de la Puerta del Sol, es&nbsp,una opción ideal para quienes buscan un alojamiento cómodo y económico en el centro. Además, el Marlasca&nbsp,se encuentra a pocos minutos a pie de los famosos museos madrileños:;http://www.esmadrid.com/sites/default/files/recursosturisticos/alojamientos/Marlasca_1395224417.942.jpg;-3.701750700000;40.415563800000;;;Accommodation;Hostales,
1311;Los Perales;DemoEM;1311;En el centro de Madrid, a sólo unos minutos de la Gran Vía, artería turística y comercial de la ciudad, pero en una calle tranquila y amigable, este hostal es una magnífica alternativa para alojarse, confortablemente, en pleno centro por menos ;http://www.esmadrid.com/sites/default/files/recursosturisticos/alojamientos/Losperales_1395223745.174.jpg;-3.707616000000;40.426692700000;;;Accommodation;Hostales,
1312;Internacional;DemoEM;1312;Este &nbsp,familiar y acogedor hostal&nbsp,está situado en pleno centro de Madrid, a escasos metros de la Puerta del Sol. Recientemente reformado dispone de&nbsp,habitaciones individuales y dobles, todas ellas equipadas con ducha o baño privado;http://www.esmadrid.com/sites/default/files/recursosturisticos/alojamientos/112415122_0.jpg;-3.699611300000;40.416203400000;;;Accommodation;Hostales,
1313;Guerra;DemoEM;1313;Un hostal económico ubicado en pleno centro, que ofrece más de dos décadas de servicio al cliente de calidad. Está rodeado de&nbsp,los principales museos de la ciudad, El Prado, el Thyssen y el Reina Sofía y lugares históricos como la Plaza May;http://www.esmadrid.com/sites/default/files/recursosturisticos/alojamientos/guerra_1394797582.609.jpg;-3.701807300000;40.416689500000;;;Accommodation;Hostales,
1314;Hostal Horizonte;DemoEM;1314;Situado en una casa señorial del siglo XIX, este hostal es una opción de alojamiento económica en pleno centro, junto a&nbsp,la famosa Puerta del Sol y muy cerca del Paseo de Arte madrileño que acoge a los principales museos de la capital: el P;http://www.esmadrid.com/sites/default/files/recursosturisticos/alojamientos/HostalHorizonte_1394709177.896.jpg;-3.701620600000;40.413505700000;;;Accommodation;Hostales,
1315;Alojamiento Ja&eacute,n;DemoEM;1315;Alojamiento Jaén se encuentra en pleno centro de Madrid, en el emblemático Barrio de las Letras, un lugar tranquilo y de cómodo acceso a las actividades y ofertas que ofrece la ciudad. Cuenta con zonas comunes donde se pueden realizar reservas ;http://www.esmadrid.com/sites/default/files/recursosturisticos/alojamientos/casa_de_huespedes_jaen_1_.jpg;-3.698094300000;40.414309400000;;;Accommodation;Pensiones,
1316;Las Fuentes;DemoEM;1316;Este hostal de dos estrellas se encuentra ubicado en pleno centro histórico de la ciudad, en el conocido barrio de los Austrias. A escasos metros de aquí, se encuentra lugares de interés turísticos como el Palacio Real, la Puerta del Sol, la Pl;http://www.esmadrid.com/sites/default/files/recursosturisticos/alojamientos/hostal_las_fuentes_.jpg;-3.708638300000;40.417422900000;;;Accommodation;Hostales,
1317;El Pasaje;DemoEM;1317;Céntrico y confortable, este hostal garantiza el descanso del huésped junto a la Puerta del Sol. Ocupa un edificio histórico totalmente renovado que combina elementos de época con otros de vanguardia. Todas sus habitaciones disponen de de aire ;http://www.esmadrid.com/sites/default/files/recursosturisticos/alojamientos/elpasaje_1394787305.002.jpg;-3.701393200000;40.416253500000;;;Accommodation;Hostales,
1318;Faustino;DemoEM;1318;Hostal tranquilo y confortable situado en pleno barrio de Las Letras,&nbsp,a escasos metros de lugares como el museo del Prado, la Puerta del Sol o la Plaza Santa Ana. El&nbsp,alojamiento dispone de habitaciones individuales, dobles, triples y ;http://www.esmadrid.com/sites/default/files/recursosturisticos/alojamientos/Faustino_1394793855.458.jpg;-3.702637100000;40.414911800000;;;Accommodation;Hostales,
1319;El Catal&aacute,n;DemoEM;1319;Un hostal cómodo y tranquilo, estratégicamente situado junto a la Gran Vía y la Plaza de Chueca, permitiendo que sus huéspedes&nbsp,satisfagan sus necesidades culturales, de ocio y compras. Dispone de 20 habitaciones, todas equipadas con baño c;http://www.esmadrid.com/sites/default/files/recursosturisticos/alojamientos/Elcatalan_1394786125.903.jpg;-3.700349400000;40.421449400000;;;Accommodation;Hostales,
1320;Edreira;DemoEM;1320;El Hostal Edreira está situado en el triángulo del arte, próximo a las principales zonas turísticas y museos de la ciudad.&nbsp,&nbsp,Sus habitaciones están equipadas con baño completo, teléfono televisión, calefacción y aire acondicionado.;http://www.esmadrid.com/sites/default/files/recursosturisticos/alojamientos/edreira_2_.jpg;-3.698384600000;40.411974700000;;;Accommodation;Hostales,
1321;Conchita II;DemoEM;1321;Hostal situado&nbsp,en la zona de Opera, junto al Teatro Real y al Palacio Real, a pocos metros de la Puerta del Sol y de la calle Gran Vía.&nbsp,El hostal cuenta con conexión WIFI en las zonas comunes además de calefacción, televisión y servic;http://www.esmadrid.com/sites/default/files/recursosturisticos/alojamientos/conchita_ii_.jpg;-3.709220200000;40.419202800000;;;Accommodation;Pensiones,
1322;Abami 2;DemoEM;1322;Hostal situado en el barrio de Malasaña, muy próximo a muchos de los atractivos de la ciudad: museos,&nbsp,tiendas, restaurantes y teatros. Sus&nbsp,habitaciones tienen&nbsp,un diseño moderno y cuentan con baño, aire acondicionado, calefacción ;http://www.esmadrid.com/sites/default/files/recursosturisticos/alojamientos/FachadaAbami_1394615769.981.jpg;-3.707524100000;40.423293500000;;;Accommodation;Hostales,
1323;Hostal Biarritz;DemoEM;1323;Hostal económico, ubicado cerca de Sol, con más de veinte años de experiencia dando servicio de calidad. Este alojamiento&nbsp,goza de una ubicación ideal a poca distancia a pie de lugares de interés turístico &nbsp,como el Museo del Prado, la ;http://www.esmadrid.com/sites/default/files/recursosturisticos/alojamientos/Biarritz_1394804512.749.jpg;-3.701691500000;40.416631200000;;;Accommodation;Hostales,
1324;Dom&iacute,nguez;DemoEM;1324;Hostal situado en el pintoresco Barrio de Chueca, a escasos metros de una de las calles más comerciales de la ciudad, la calle Fuencarral. Dispone de unas habitaciones sencillas, confortables y&nbsp,equipadas con todo lo necesario para garantiz;http://www.esmadrid.com/sites/default/files/recursosturisticos/alojamientos/hostal_dominguez_.jpg;-3.700579300000;40.424398000000;;;Accommodation;Hostales,
1325;Aresol;DemoEM;1325;Un hostal a pocos metros de la Puerta del Sol, en pleno centro neurálgico, turístico y comercial de Madrid.&nbsp,El Hostal dispone de 11 habitaciones acogedoras y completamente equipadas con baño privado, calefacción, aire acondicionado, WIFI g;http://www.esmadrid.com/sites/default/files/recursosturisticos/alojamientos/aresol_2_.jpg;-3.705173300000;40.416888300000;;;Accommodation;Hostales,
1326;Pensi&oacute,n Corbero;DemoEM;1326;Pensión ubicada en una zona residencial en pleno centro de Madrid, acoge al visitante con cómodas habitaciones que cuentan con un alto nivel de equipamiento ya que&nbsp,todas las habitaciones disponen de instalación de aire acondicionado, calef;http://www.esmadrid.com/sites/default/files/recursosturisticos/alojamientos/corbero_1_.jpg;-3.696228600000;40.414172800000;;;Accommodation;Pensiones,
1327;Hostal del Pez Azul;DemoEM;1327;Situado en una calle tranquila cerca de Gran Vía, este hostal es ideal para disfrutar del ocio de la ciudad ya que está rodeado de&nbsp,tiendas, cines y teatros. Desde su ubicación, se puede acceder a pie a algunos de los atractivos turísticos ;http://www.esmadrid.com/sites/default/files/recursosturisticos/alojamientos/PezAzul_1394805017.926.jpg;-3.704876400000;40.423374800000;;;Accommodation;Hostales,
1328;Florida;DemoEM;1328;Un hostal tranquilo y económico situado en el centro de Madrid, junto a la plaza de Tirso de Molina.&nbsp,El hostal dispone de habitaciones con baño privado y otras con baño compartido y destaca por un excelente trato al cliente y una céntrica ;http://www.esmadrid.com/sites/default/files/recursosturisticos/alojamientos/hostalflorida_1394795849.74.jpg;-3.703950600000;40.412842600000;;;Accommodation;Pensiones,
1329;Hispalense;DemoEM;1329;Hostal situado en pleno Madrid de los Austrias, cerca de los grandes conjuntos monumentales de la capital, como el Palacio Real, la Plaza Mayor, el Teatro Real o la Puerta del Sol.&nbsp,Todas las habitaciones cuentan con aseos propios, aire&nbs;http://www.esmadrid.com/sites/default/files/recursosturisticos/alojamientos/Hispalense_1394799064.522.jpg;-3.708637300000;40.417543400000;;;Accommodation;Hostales,
1330;Hostal Chelo;DemoEM;1330;Hostal económico y sencillo, situado en el entorno de Gran Vía, junto a las&nbsp,estaciones de metro de Chueca y Tribunal, una zona repleta de bares de tapas y restaurantes.&nbsp,Sus habitaciones disponen de conexión inalámbrica a internet grat;http://www.esmadrid.com/sites/default/files/recursosturisticos/alojamientos/hostal_chelo_.jpg;-3.700461800000;40.421233800000;;;Accommodation;Hostales,
1331;Pensi&oacute,n Barja;DemoEM;1331;A cinco minutos de la Plaza de Calla y a diez minutos andando de la Plaza del Sol, dos de los lugares más visitados en la capital. Dispone de habitaciones individuales y dobles. Todas las estancias incluyen baño propio, calefacción y aire acond;http://www.esmadrid.com/sites/default/files/recursosturisticos/alojamientos/pension_barja_2_.jpg;-3.703083300000;40.422206600000;;;Accommodation;Pensiones,
1332;Pensi&oacute,n Cartagenera;DemoEM;1332;La Pensión Cartagenera se encuentra ubicado en el centro de Madrid y hace que tenga un acceso cómodo a las principales zonas turísticas de la capital. Los huéspedes disponen de numerosas instalaciones y comodidades como ascensor, servicio de gu;http://www.esmadrid.com/sites/default/files/recursosturisticos/alojamientos/pension_cartagena_2_.jpg;-3.703083300000;40.422206600000;;;Accommodation;Pensiones,
1333;Casa de Huespedes Casillas;DemoEM;1333;En Casa de Huespedes Casillas encontrarás el mejor ambiente y comodidad. Las cinco habitaciones con las que cuentan tienen todo lo básico y esencial para hospedarte en la capital. Cuenta con atención personalizada para cada cliente y garantiza ;http://www.esmadrid.com/sites/default/files/recursosturisticos/alojamientos/casa_de_huespedes_casillas.jpg;-3.700897100000;40.420583100000;;;Accommodation;Pensiones,
1334;Pensi&oacute,n Casado;DemoEM;1334;La Pensión Casado cuenta con una excelente ubicación a tan solo 10 minutos andando de la estación de Atocha y cerca de lugares turísticos de la ciudad como el Museo del Prado. Sus habitaciones incluyen TV de pantalla plana y la mayoria disponen;http://www.esmadrid.com/sites/default/files/recursosturisticos/alojamientos/pension_casado__0.jpg;-3.701360900000;40.412369300000;;;Accommodation;Pensiones,
1335;Pensi&oacute,n Berti;DemoEM;1335;La Pensión Berti ofrece calidad al mejor precio en pleno corazón de Madrid. Las habitaciones del local son cálidas y acogedoras, todas tienen lavabo y baño compartido pero con set de aseo y secados de pelo gratuito. Todas las estancias están eq;http://www.esmadrid.com/sites/default/files/recursosturisticos/alojamientos/pension_berti_2__0.jpg;-3.700878700000;40.420612500000;;;Accommodation;Pensiones,
1336;Hostal Bah&iacute,a Madrid;DemoEM;1336;Ubicado en Sol, este hostal económico y con encanto flamenco, permite conocer a pie los encantos de Madrid. Desde aquí, el viajero puede salir de tapas por La Latina o la zona de Huertas, ir de compras por distintas zonas comerciales como la ca;http://www.esmadrid.com/sites/default/files/recursosturisticos/alojamientos/hostal_bahia_madrid_.jpg;-3.703192700000;40.414920700000;;;Accommodation;Hostales,
1337;Pensi&oacute,n Numancia;DemoEM;1337;La Pensión Numancia se encuentra ubicada en pleno barrio de Chamberí, zona céntrica de Madrid, se trata de una de las mejores estancias para disfrutar de la ciudad. se encuentra cerca de zonas turísticas de interés como Museo Sorolla, Ciudad Un;http://www.esmadrid.com/sites/default/files/recursosturisticos/alojamientos/pension_numancia_.jpg;-3.705209200000;40.434940700000;;;Accommodation;Pensiones,
1338;Alaska;DemoEM;1338;Pequeño y acogedor hostal de ambiente agradable situado en el centro de Madrid, junto a la puerta del Sol. Además, se encuentra muy próximo a otros puntos de interés turístico de la ciudad, como la Plaza de Santa Ana, el Museo del Prado, el Thy;http://www.esmadrid.com/sites/default/files/recursosturisticos/alojamientos/hostal_alaska_.jpg;-3.702363000000;40.415895200000;;;Accommodation;Hostales,
1339;Angelines;DemoEM;1339;Situando en el barrio de Arguelles, muy próximo a Ciudad Universitaria y a unos 10 minutos de la calle Gran Vía.&nbsp,Todas las habitaciones disponen de cuarto de baño, calefacción, televisión y acceso a WIFI.;http://www.esmadrid.com/sites/default/files/recursosturisticos/alojamientos/angelines_.jpg;-3.716813100000;40.433372000000;;;Accommodation;Pensiones,
1340;Pensi&oacute,n Adeco;DemoEM;1340;Esta pensión está situada en pleno centro de Madrid, en el barrio de Chueca. Cuenta con habitaciones sencillas y dobles, con posibilidad de supletoria, baño, wifi, calefacción, aire acondicionado, televisión, etc.Un lugar tranquilo donde hosped;http://www.esmadrid.com/sites/default/files/recursosturisticos/alojamientos/pension_adeco_.jpg;-3.701032000000;40.421794500000;;;Accommodation;Pensiones,
1341;Ilunion Hotels Atrium;DemoEM;1341;Hotel confortable y completo en Madrid, de reciente construcción, perfecto para sus estancias de ocio o negocios. El hotel se sitúa en una zona financiera y de negocios al este de Madrid. Un sector en desarrollo y dinámico. El Ilunion Hotels At;http://www.esmadrid.com/sites/default/files/recursosturisticos/alojamientos/confor6_1415797506.548.jpg;-3.655261200000;40.447567400000;;;Accommodation;Hoteles,
1342;Jard&iacute,n Real de Mirasierra ;DemoEM;1342;Un hotel de lujo enfrente del Hospital Ruber Internacional, en la zona norte de Madrid. En todo el Hotel se ha buscado aunar la tradición clásica pero con un planteamiento moderno. Se le ha dado valor a materiales y formas tradicionalmente clás;http://www.esmadrid.com/sites/default/files/recursosturisticos/alojamientos/418962350_1942010132459_adj.jpg;-3.714098100000;40.489281500000;;;Accommodation;Hoteles,
1343;NH Las Tablas;DemoEM;1343;Hotel de cuatro estrellas, miembro de la prestigiosa cadena NH Hotels, que con su privilegiada situación en la zona norte de la ciudad, cerca de la autopista A1, permite un cómodo acceso a las principales vías, al centro de la ciudad, al recint;http://www.esmadrid.com/sites/default/files/recursosturisticos/alojamientos/tab4_1418198944.756.jpg;-3.664821700000;40.498427200000;;;Accommodation;Hoteles,
1344;Compostela Suites;DemoEM;1344;Este complejo de apartamentos se sitúa muy cerca del aeropuerto Adolfo Suárez Madrid - Barajas. Está compuesto por 4 edificios&nbsp,rodeando una espaciosa zona central con instalaciones deportivas al aire libre entre las que se cuenta una pisci;http://www.esmadrid.com/sites/default/files/recursosturisticos/alojamientos/29_1415791171.135.jpg;-3.580304100000;40.447671200000;;;Accommodation;Apartahoteles,
1345;Los Coronales;DemoEM;1345;Pequeño hostal ubicado en el barrio de Los Coronales de Barajas, entre el aeropuerto y los recintos feriales de Madrid (IFEMA). Un alojamiento de ambiente familiar que goza de una perfecta situación. Ofrece unas habitaciones sencillas muy bien ;http://www.esmadrid.com/sites/default/files/recursosturisticos/alojamientos/los_coronales_3_.jpg;-3.590116700000;40.466579000000;;;Accommodation;Hostales,
1346;Apartamentos Madrid;DemoEM;1346;Aquí encontrará apartamentos turísticos con todos los servicios incluidos y con toda la comodidad necesaria en el centro de Madrid. A menos de cinco minutos de la puerta del Sol, el llamado kilómetro cero de España, ésta es una opción perfecta ;http://www.esmadrid.com/sites/default/files/recursosturisticos/alojamientos/ApartamentosMadrid_1394626365.33.jpg;-3.691728000000;40.408979000000;;;Accommodation;Apartahoteles,
1347;Rosewood Villa Magna;DemoEM;1347;El hotel Rosewood Villa Magna, tras una profunda renovación, sigue siendo el lugar perfecto para los&nbsp,que buscan la ubicación ideal en el centro de la ciudad. Su situación&nbsp,permite explorar la zona a pie, incluyendo el elegante distrito;http://www.esmadrid.com/sites/default/files/recursosturisticos/alojamientos/villa_magna_7.png;-3.688152500000;40.429951500000;;;Accommodation;Hoteles,
1348;Hotel Eco V&iacute,a Lusitana;DemoEM;1348;Inaugurado en 2003, el hotel Eco Vía Lusitana es uno de los emplazamientos recomendados principalmente para aquellos que, quizá por motivos de trabajo, necesiten de un enclave adecuado para desplazarse por la zona sur de la capital o por los gr;http://www.esmadrid.com/sites/default/files/recursosturisticos/alojamientos/lusi3_1417093680.96.jpg;-3.742279100000;40.372605200000;;;Accommodation;Hoteles,
1349;Eurostars Madrid Tower;DemoEM;1349;Es posible que, al asomarse por la ventana de una de las 474 habitaciones del Eurostars Madrid Tower, cualquiera pierda la perspectiva. Desde allí se ven las Torres Kio y los edificios de Azca el madrid de los rascacielos en todo su esplendor, ;http://www.esmadrid.com/sites/default/files/recursosturisticos/alojamientos/eurostars5.jpg;-3.687930107117;40.476741677704;;;Accommodation;Hoteles,
1350;Petit Palace Mayor-Plaza;DemoEM;1350;Es uno de los hoteles más modernos de la ciudad y con una situación inmejorable, ya que se encuentra en una de las entradas a la Plaza Mayor, a escasos metros de la Puerta del Sol, el centro neurálgico de Madrid. También está cerca de todos los;http://www.esmadrid.com/sites/default/files/recursosturisticos/alojamientos/1696142047_137201010458_adj.jpg;-3.709079900000;40.415985700000;;;Accommodation;Hoteles,
1351;Hostal Odesa;DemoEM;1351;El Hostal Odesa ofrece habitaciones amplias y confortables con un equipamiento completo en el barrio de Chueca. Dispone de habitaciones con&nbsp,baño completo, aire acondicionado, televisión de plasma,&nbsp,teléfono, caja de seguridad y&nbsp,ac;http://www.esmadrid.com/sites/default/files/recursosturisticos/alojamientos/odesa_1394806992.61.jpg;-3.699803700000;40.421948000000;;;Accommodation;Hostales,
1352;Hostal Dos Naciones;DemoEM;1352;El Hostal Dos Naciones es un alojamiento acogedor, de trato amable y familiar, situado en el Barrio de las Letras, a pocos metros a pie de la Puerta del Sol y de la Plaza Mayor y rodeado de cines, teatros y museos. Dispone de habitaciones dotad;http://www.esmadrid.com/sites/default/files/recursosturisticos/alojamientos/hostal_dos_naciones_1_.jpg;-3.704800400000;40.413470000000;;;Accommodation;Hostales,
1353;Hotel Julia;DemoEM;1353;El Hotel Julia se encuentra en la zona empresarial de Madrid, es de fácil acceso desde las vías principales de la capital, M40 y A2. Muy cercano al aeropuerto, al Palacio Municipal de Congresos y al recinto ferial Juan Carlos I (IFEMA). Está si;http://www.esmadrid.com/sites/default/files/recursosturisticos/alojamientos/hotel_julia_3__0.jpg;-3.632720000000;40.434200000000;;;Accommodation;Hoteles,
1354;Hilton Madrid Airport;DemoEM;1354;La cadena hotelera internacional Hilton se instaló en Madrid con este hotel a pocos minutos del aeropuerto Internacional Adolfo Suárez Madrid - Barajas. Hilton es sinónimo de elegancia y servicio impecable, y este hotel lleva su apellido con to;http://www.esmadrid.com/sites/default/files/recursosturisticos/alojamientos/136086733_2122008141748_adj.jpg;-3.585748672485;40.452180440898;;;Accommodation;Hoteles,
1355;Maydrit Airport;DemoEM;1355;Inaugurado en el verano de 2008 este hotel, moderno y funcional, está situado en una de las zonas de actividad empresarial del noreste de Madrid. Muy próximo al aeropuerto Adolfo Suárez Madrid - Barajas y al recinto ferial IFEMA, está a su vez ;http://www.esmadrid.com/sites/default/files/recursosturisticos/alojamientos/mad2_1417773622.097.jpg;-3.593112000000;40.451400000000;;;Accommodation;Hoteles,
1356;Apartamentos Ram&oacute,n de la Cruz;DemoEM;1356;Ubicado en el barrio de Salamanca, sus apartamentos son exteriores y muy luminosos. Cada uno se distribuye en dormitorio (con armarios empotrados, caja de seguridad y televisión), salón con dos ambientes (la zona de descanso con sofá o sillón y;http://www.esmadrid.com/sites/default/files/recursosturisticos/alojamientos/apartamento_ramon_de_la_cruz_2_.jpg;-3.680408000000;40.428963000000;;;Accommodation;Apartahoteles,
1357;B &amp, B Hotel Madrid Airport;DemoEM;1357;El B &amp, B Hotel Madrid Airport se encuentra en la autovía A-2, cerca del aeropuerto Adolfo Suárez Madrid - Barajas y del Recinto Ferial IFEMA. El hotel está rodeado por los parques empresariales de las localidades de Coslada, San Fernando, T;http://www.esmadrid.com/sites/default/files/recursosturisticos/alojamientos/hol3_1417076758.173.jpg;-3.548858300000;40.447682100000;;;Accommodation;Hoteles,
1358;Ibis Calle Alcal&aacute, Hotel;DemoEM;1358;Ubicado a unos metros de la calle Alcalá y a tan solo 15 minutos de la misma Gran Vía, la zona más cosmopolita de la ciudad, se encuentra el Hotel Ibis Calle Alcalá Hotel rodeado de una amplia gama de opciones en cuanto a restauración y ocio.El;http://www.esmadrid.com/sites/default/files/recursosturisticos/alojamientos/ibis_madrid_.jpg;-3.626450600000;40.439394200000;;;Accommodation;Hoteles,
1359;Eco Alcal&aacute, Suites;DemoEM;1359;El Eco Alcala Suites se encuentra estratégicamente ubicado en una zona residencial, comercial y de negocios de Madrid, que cuenta con numerosos comercios, bares y restaurantes. Está a tan sólo 50 metros de la calle Alcalá y a 600 metros de la p;http://www.esmadrid.com/sites/default/files/recursosturisticos/alojamientos/695658377_3062010115440_adj.jpg;-3.631643000000;40.437748000000;;;Accommodation;Hoteles,
1360;Suites Viena;DemoEM;1360;Ubicado en el centro del área de negocios del barrio de Argüelles de Madrid, entre las calles Gran Vía, Princesa, Ferraz y Paseo Rosales, este hotel de nueva construcción se encuentra a escasos metros de la Plaza de España y del Palacio de Orie;http://www.esmadrid.com/sites/default/files/recursosturisticos/alojamientos/viena2_1418993275.324.jpg;-3.714895000000;40.424830000000;;;Accommodation;Hoteles,
1361;Hostal Colors Host;DemoEM;1361;En Colors Host el color es el protagonista, ya que cada habitación está decorada con un tono diferente. Situado en el barrio de Chueca, junto a Gran Vía, cuenta con habitaciones dobles que disponen de televisión, acceso a Internet, calefacción ;http://www.esmadrid.com/sites/default/files/recursosturisticos/alojamientos/host_1417081196.551.jpg;-3.700828000000;40.422638000000;;;Accommodation;Hostales,
1362;Adri&aacute, Santa Ana;DemoEM;1362;Hostal situado en el centro histórico de Madrid, a pocos metros de la Puerta del Sol y de la Plaza Mayor.&nbsp,Sus habitaciones están equipadas con: baño privado, aire acondicionado, calefacción central, teléfono, TV, frigorífico, caja de segur;http://www.esmadrid.com/sites/default/files/recursosturisticos/alojamientos/hostaladria_1396174235.436.jpg;-3.701278100000;40.415174600000;;;Accommodation;Hostales,
1363;Armesto;DemoEM;1363;Hostal situado en el centro de Madrid, junto a la Plaza de las Cortes, desde el que se puede acceder a pie a los principales museos de la ciudad: el Reina Sofía, el Prado o el Thyssen, y cerca también de la Plaza Mayor, la Gran Vía y la Puerta ;http://www.esmadrid.com/sites/default/files/recursosturisticos/alojamientos/armesto_1430133525.822.jpg;-3.696927000000;40.414906000000;;;Accommodation;Hostales,
1364;Barcel&oacute, Castellana Norte;DemoEM;1364;Hotel de nueva construcción, moderno y funcional, situado en la zona de negocios de mayor crecimiento de la ciudad, se encuentra a cinco minutos del IFEMA y a 3 minutos del centro comercial Corte Inglés Sanchinarro.Sus habitaciones destacan por;http://www.esmadrid.com/sites/default/files/recursosturisticos/alojamientos/Barcelo_Castellana_Norte3_alta.jpg;-3.668730800000;40.488415100000;;;Accommodation;Hoteles,
1365;Room Mate Laura;DemoEM;1365;El concepto de alojamiento que plantea Room Mate es, como poco, innovador. Aquí la idea es que te sientas como en la casa de tu mejor amigo, un lugar agradable, cómodo, moderno&hellip, La idea surgió de tres amigos, Kike, Carlos y Gorka, que to;http://www.esmadrid.com/sites/default/files/recursosturisticos/alojamientos/room_mate_laura_2_.jpg;-3.707330000000;40.418630000000;;;Accommodation;Hoteles,
1366;Hostal la Fontana ;DemoEM;1366;Al lado de la Gran Vía madrileña, el hostal La Fontana se encuentra en la primera planta de un edificio construido en 1884. Ofrece habitaciones individuales y dobles, con baño privado, calefacción, teléfono, hilo musical, ventiladores y televis;http://www.esmadrid.com/sites/default/files/recursosturisticos/alojamientos/hostal_la_fontana_1.jpg;-3.702205000000;40.420834000000;;;Accommodation;Hostales,
1367;Pizarro;DemoEM;1367;En pleno centro de Madrid, al lado del barrio de Chueca, este hostal se ubica en uno de los pocos edificios de estilo modernista de la ciudad, un edificio que, a principios del siglo pasado fue sede del periódico El Correo Español. Su fachada e;http://www.esmadrid.com/sites/default/files/recursosturisticos/alojamientos/piz2_1418637950.364.jpg;-3.705918000000;40.423130000000;;;Accommodation;Hostales,
1368;Hostal Puerta del Sol;DemoEM;1368;Como su propio nombre indica, el hostal está ubicado en el corazón de Madrid, en la Puerta del Sol, en la confluencia de las calles Alcalá, Arenal, Montera, San Jerónimo y Carretas.&nbsp,Aquí todo está al alcance del huésped: se puede ir pasean;http://www.esmadrid.com/sites/default/files/recursosturisticos/alojamientos/hostal_puerta_del_sol_madrid_.jpg;-3.702731000000;40.416996000000;;;Accommodation;Hostales,
1369;Room Mate &Oacute,scar ;DemoEM;1369;Óscar se define a si mismo como cosmopolita, noctámbulo, moderno y extrovertido. Así es el compañero de piso que te espera en el nuevo Room Mate, situado al borde de la Gran Vía, entre Fuencarral y Barquillo, en la luminosa Plaza de Pedro Zerol;http://www.esmadrid.com/sites/default/files/recursosturisticos/alojamientos/Room_Mate_Oscar49_alta.jpg;-3.699197500000;40.420658600000;;;Accommodation;Hoteles,
1370;Cats Hostel Madrid Sol;DemoEM;1370;Situado a escasos minutos andando del centro, Cats Hostel es un albergue en Madrid que trata de ofrecer lo que cualquier viajero que no quiera gastar mucho dinero busca: un lugar limpio, cómodo, céntrico y en una zona divertida, con mucha vida.;http://www.esmadrid.com/sites/default/files/recursosturisticos/alojamientos/Cats_1396520937.528.jpg;-3.701653000000;40.413143000000;;;Accommodation;Albergues,
1371;San Ferm&iacute,n;DemoEM;1371;El albergue es ideal para grupos de jovenes, cuenta con habitaciones dobles y habitaciones múltiples tanto separada por sexo como mixtas. Hay una sala de reunión y un salón de actos, la cocina está habilitada para la disponibilidad del cliente.;http://www.esmadrid.com/sites/default/files/recursosturisticos/alojamientos/san_fermin_3_.jpg;-3.688983000000;40.370390000000;;;Accommodation;Albergues,
1372;Hostel Los Amigos;DemoEM;1372;El Hostel Los Amigos se trata de un albergue familiar de calidad. Sus empleados se adaptan a las circunstancias de cada grupo. El hostel está situado en pleno centro de la capital, a tan solo 300 metros de la emblemática Puerta del Sol.&nbsp, C;http://www.esmadrid.com/sites/default/files/recursosturisticos/alojamientos/hostel_los_amigos_1_.jpg;-3.708136700000;40.417873200000;;;Accommodation;Albergues,
1373;Albergue MuchoMadrid;DemoEM;1373;Alojamiento situado&nbsp,en el corazón del centro de la ciudad, en plena&nbsp,Gran Vía.&nbsp,El Hostel dispone de habitaciones amplias y confortables. Cada huésped tiene su propio armario privado, toallas de baño, ropa de cama y desayuno inclui;http://www.esmadrid.com/sites/default/files/recursosturisticos/alojamientos/albergue_muchomadrid_2_.jpg;-3.709113000000;40.422250000000;;;Accommodation;Albergues,
1374;Apartamentos Juan Bravo;DemoEM;1374;Junto a la milla de oro madrileña, en pleno barrio de Salamanca, este complejo ofrece apartamentos y estudios distribuidos en un edificio de diez plantas, con fachada a la calle Juan Bravo y zona ajardinada en el interior.Se ofrecen diversos se;http://www.esmadrid.com/sites/default/files/recursosturisticos/alojamientos/apartamentos_juan_bravo_.jpg;-3.674263200000;40.432211600000;;;Accommodation;Apartahoteles,
1375;Albergue Internacional Posada de Huertas;DemoEM;1375;Este albergue tiene una ubicación y una situación privilegiadas. Se encuentra en el céntrico &lsquo,Barrio de Las Letras&rsquo, en un edificio que fue corrala a principios del siglo XIX. La Posada de Huertas es idónea para el turismo juvenil in;http://www.esmadrid.com/sites/default/files/recursosturisticos/alojamientos/5_1414669297.968.jpg;-3.699392000000;40.413740000000;;;Accommodation;Albergues,
1376;Cats Chill Out Hostel;DemoEM;1376;El Cats Chill Out Hostel&nbsp, está stiuado en el barrio de Lavapiés. El albergue tiene un ambiente sociable y a cogedor donde se pueden compartir experiencias con otros usuarios. Hay una amplia variedad de habitaciones, para 2,4 y 6 personas. ;http://www.esmadrid.com/sites/default/files/recursosturisticos/alojamientos/cats_chill_out_hostel_4.jpg;-3.702172000000;40.411934000000;;;Accommodation;Albergues,
1377;Albergue Barbieri International;DemoEM;1377;Dormitorios compartidos, espaciosos, exteriores y habitaciones de dos camas para los viajeros que deseen mas intimidad. Todas las habitaciones tienen baños compartidos.;http://www.esmadrid.com/sites/default/files/recursosturisticos/alojamientos/albergue_barbieri_.jpg;-3.698045000000;40.421430000000;;;Accommodation;Albergues,
1378;Residencia Universitaria Cardenal Spinola;DemoEM;1378;Este centro universitario femenino está tutelado por la Orden Esclavas del Divino Corazón. Ofrece pensión completa (excepto los domingos) en habitaciones individuales que incluyen lavabo y servicio de lavandería comprendido en el precio.Las duc;http://www.esmadrid.com/sites/default/files/recursosturisticos/alojamientos/cardenal2.jpg;-3.714204900000;40.444119500000;;;Accommodation;Residencias universitarias,
1379;Residencia U. Nuestra Se&ntilde,ora del Rosario;DemoEM;1379;La residencia está dirigida por las RR. Misioneras de Sto. Domingo.Dispone de numerosas instalaciones para uso y comodidad de las residentes, así como una serie de servicios adicionales. ;http://www.esmadrid.com/sites/default/files/recursosturisticos/alojamientos/monjas3.jpg;-3.686831300000;40.429317000000;;;Accommodation;Residencias universitarias,
1380;Residencia U. Siervas del Sagrado Coraz&oacute,n;DemoEM;1380;Residencia universitaria con 85 habitaciones individuales que cuentan con todas las comodidades.&nbsp,Cada habitación cuenta con baño completo e&nbsp,internet&nbsp,totalmente gratuito y una excelente comunicación con las universidades Autónoma,;http://www.esmadrid.com/sites/default/files/recursosturisticos/alojamientos/resi3.jpg;-3.670696000000;40.468110000000;;;Accommodation;Residencias universitarias,
1381;Residencia Universitaria Virgen de las Nieves;DemoEM;1381;La Residencia acoge a chicas estudiantes, trabajadoras y opositoras, en edades comprendidas entre los 18 y los 26 años, interesadas en convivir en una residencia dirigida por religiosas, en un ambiente sencillo y familiar.;http://www.esmadrid.com/sites/default/files/recursosturisticos/alojamientos/monjas.jpg;-3.697949000000;40.461620000000;;;Accommodation;Residencias universitarias,
1382;Apartamentos Centro Col&oacute,n;DemoEM;1382;Apartamentos situados en el centro de Madrid, junto al Paseo del Arte y por lo tanto a un paso de los grandes museos de la ciudad, el Museo de Prado, el Thyssen, el Reina Sofía, el Museo Arqueológico o la Biblioteca Nacional.Todos los apartamen;http://www.esmadrid.com/sites/default/files/recursosturisticos/alojamientos/colon3.jpg;-3.692233000000;40.425290000000;;;Accommodation;Apartahoteles,
1383;Residencia Universitaria Mar&iacute,a Inmaculada;DemoEM;1383;Las Residencias &ldquo,María Inmaculada&rdquo, ofrecen a las jóvenes: acogida, cercanía, escucha, respeto y atención personalizada, desde una dinámica de participación y alegría.Cuenta con excelentes jardines con acceso directo de vehículos, zo;http://www.esmadrid.com/sites/default/files/recursosturisticos/alojamientos/maria3.jpg;-3.698872900000;40.442825100000;;;Accommodation;Residencias universitarias,
1384;Aparthotel Serrano Recoletos;DemoEM;1384;Complejo de estudios y&nbsp,apartamentos situados en una de las zonas más exclusivas de Madrid, entre Paseo de Recoletos y la calle Serrano.Los alojamientos tienen una&nbsp,capacidad de hasta 6 personas, equipamiento para mascotas, cocina equip;http://www.esmadrid.com/sites/default/files/recursosturisticos/alojamientos/recoletos3.jpg;-3.690676000000;40.423060000000;;;Accommodation;Apartahoteles,
1385;Apartamentos Olano;DemoEM;1385;Situados en el barrio comercial de Prosperidad, los Apartamentos Olano, están totalmente equipados con&nbsp,baño privado y cocina completa. Los apartamentos&nbsp,están muy bien comunicados con la ciudad gracias a la parada de metro situada a ci;http://www.esmadrid.com/sites/default/files/recursosturisticos/alojamientos/apartamentos-olano-29g.jpg;-3.672570000000;40.445118000000;;;Accommodation;Apartahoteles,
1386;Apartamentos Principe 11;DemoEM;1386;Situado entre la Puerta del Sol y la Plaza de las Cortes, &nbsp,este establecimiento ofrece estudios, suites y apartamentos familiares. Los estudios (exteriores e interiores) cuentan con una habitación de unos 40 m2 con cama de matrimonio o dos;http://www.esmadrid.com/sites/default/files/recursosturisticos/alojamientos/apartamentotriple29_1414749865.379.jpg;-3.700367000000;40.415874000000;;;Accommodation;Apartahoteles,
1387;Apartamentos Goya 75;DemoEM;1387;Apartamentos turísticos situados en el barrio de Salamanca, muy próximos al Parque de El Retiro y en una de las mejores zonas&nbsp,comerciales, culturales y recreativas de la ciudad.Todos las estancias cuentan con&nbsp,cocina americana&nbsp,equ;http://www.esmadrid.com/sites/default/files/recursosturisticos/alojamientos/ap2_1429784736.156.jpg;-3.678654000000;40.425160000000;;;Accommodation;Apartahoteles,
1388;The Pavilions Madrid;DemoEM;1388;Situado en el distrito de Chamberí, muy cerca de la Plaza de Colón, se encuentra este hotel de la cadena hotelera The Pavilions, que ocupa el edificio en el que se situara el antiguo Aparthotel Amador de los Ríos. El lujoso alojamiento es una o;http://www.esmadrid.com/sites/default/files/recursosturisticos/alojamientos/pavilions_0.jpg;-3.691411614418;40.427079362067;;;Accommodation;Hoteles,
1389;Residencia U. Instituci&oacute,n del Divino Maestro;DemoEM;1389;La residencia universitaria en Madrid, Institución del Divino Maestro, es una fundación benéfico-docente promovida y patrocinada por el Arzobispado de Madrid desde el año 1927.Cuenta con habitaciones dobles y triples con baños comunes ubicados ;http://www.esmadrid.com/sites/default/files/recursosturisticos/alojamientos/salajuegos.jpg;-3.708466000000;40.426230000000;;;Accommodation;Residencias universitarias,
1390;Residencias de Postgraduados P&iacute,o XI y Le&oacute,n XIII;DemoEM;1390;Las residencias Pío XI (masculina) y León XIII (femenina)&nbsp,están regentadas por la Fundación Pablo VI, fueron creadas por el Cardenal Ángel Herrera Oria en 1968, erigidas por la Santa Sede y reconocidas como fundación religiosa y benéfico-d;http://www.esmadrid.com/sites/default/files/recursosturisticos/alojamientos/leo2_1418808628.54.jpg;-3.719954000000;40.444874000000;;;Accommodation;Residencias universitarias,
1391;Stylish city aparhotel;DemoEM;1391;Apartamentos situados en el barrio de Prosperidad,&nbsp,&nbsp,cerca de las zonas comerciales exclusivas como la calle Goya o Velázquez, del Auditorio Nacional de música y a solo 15 minutos a pie del Estadio Bernabeú.Todos los alojamientos cuent;http://www.esmadrid.com/sites/default/files/recursosturisticos/alojamientos/stylis2.jpg;-3.674407000000;40.443140000000;;;Accommodation;Hostales,
1392;Residencia Universitaria Augustinus-Nebrija;DemoEM;1392;;http://www.esmadrid.com/sites/default/files/recursosturisticos/alojamientos/agustinus.3.jpg;-3.715409000000;40.439056000000;;;Accommodation;Residencias universitarias,
1393;Apartahotel VP El Madro&ntilde,o;DemoEM;1393;Este alojamiento forma parte de los hoteles de guardia de la Comunidad de Madrid considerados como servicio esencial según la Orden TMA/305/2020 de 30 de marzo, del Ministerio de Transportes, Movilidad y Agenda Urbana.Situado en el Barrio de Sa;http://www.esmadrid.com/sites/default/files/recursosturisticos/alojamientos/2132088136_2362010101639_adj.jpg;-3.676410000000;40.435055000000;;;Accommodation;Apartahoteles,
1394;Residencia Universitaria Sant&iacute,sima Trinidad;DemoEM;1394;Las residencias dirigidas por la Congregación Hermanas Trinitarias fueron creadas con el objetivo de dar respuesta a las necesidades de convivencia y formación de las jóvenes que, lejos de su hogar y entorno familiar, buscan alojamiento, orient;http://www.esmadrid.com/sites/default/files/recursosturisticos/alojamientos/CLJardin_1418806208.252.jpg;-3.640028000000;40.440674000000;;;Accommodation;Residencias universitarias,
1395;Residencia Universitaria G&oacute,mez-Pardo;DemoEM;1395;Esta residencia mixta, dirigida por la Fundación Gómez-Pardo y adscrita a la Universidad Politécnica de Madrid, está dirigida prioritariamente a estudiantes de la Escuela de Minas procedentes de fuera de Madrid, aunque también se alojan en ella;http://www.esmadrid.com/sites/default/files/recursosturisticos/alojamientos/gomez4.jpg;-3.701118600000;40.443055900000;;;Accommodation;Residencias universitarias,
1396;Colegio Mayor Jaime del Amo;DemoEM;1396;Este Colegio Mayor Universitario es un centro adscrito a la Universidad Complutense de Madrid, dirigido por los Misioneros Claretianos. El nombre del colegio viene de su fundador, D. Jaime del Amo, que quiso perpetuar en él la memoria de su pad;http://www.esmadrid.com/sites/default/files/recursosturisticos/alojamientos/jaime2.jpg;-3.722282000000;40.445950000000;;;Accommodation;Residencias universitarias,
1397;Club Universitario;DemoEM;1397;En el año 1992 nace el Club Universitario abriendo en Madrid residencias para estudiantes universitarios, post-grado, opositores o en cursos de prácticas. El principal objetivo de este Club es crear el ambiente adecuado para lograr el éxito de ;http://www.esmadrid.com/sites/default/files/recursosturisticos/alojamientos/club3.jpg;-3.693704000000;40.436607000000;;;Accommodation;Residencias universitarias,
1398;Colegio Mayor Xim&eacute,nez de Cisneros;DemoEM;1398;Se trata del Colegio Mayor Decano de la Universidad Complutense de Madrid. Desde su fundación en 1943, han pasado por él promociones de estudiantes de toda España y el extranjero, contándose entre sus antiguos colegiales personalidades importan;http://www.esmadrid.com/sites/default/files/recursosturisticos/alojamientos/3-2014-03-11-doble_covacis1.jpg;-3.727911000000;40.435673000000;;;Accommodation;Residencias universitarias,
1399;Centro universitario Castilla;DemoEM;1399;Los pisos del CU Castilla responden a la necesidad de los universitarios de convivir fuera de las aulas.&nbsp,Ofrecen un ambiente universitario que propicia el estudio intenso, en una atmósfera a la vez profesional y de compañerismo, con atenci;http://www.esmadrid.com/sites/default/files/recursosturisticos/alojamientos/pisoestudiante.jpg;-3.689877200000;40.442292400000;;;Accommodation;Residencias universitarias,
1400;Colegio Mayor Aquinas;DemoEM;1400;El Colegio Mayor Santo Tomás de Aquino (Aquinas) es una institución educativa, adscrita a la Universidad Complutense de Madrid y fundada por la Orden de Predicadores (Padres Dominicos). De secular tradición universitaria, fue reconocida por Ord;http://www.esmadrid.com/sites/default/files/recursosturisticos/alojamientos/aquinas4.jpg;-3.721471700000;40.452671400000;;;Accommodation;Residencias universitarias,
1401;Colegio Mayor P&iacute,o XII;DemoEM;1401;Este Colegio Mayor está situado&nbsp,&nbsp,en Ciudad Universitaria, un espacio natural en pleno centro de Madrid, punto de encuentro de estudiantes de todo el mundo y ubicación de prestigiosas universidades: Complutense, Politécnica, San Pablo ;http://www.esmadrid.com/sites/default/files/recursosturisticos/alojamientos/pioxll3.jpg;-3.719954000000;40.444874000000;;;Accommodation;Residencias universitarias,
1402;Residencia de Estudiantes EASO;DemoEM;1402;Alojamiento, en habitación individual o doble, en régimen de piso compartido en residencias de Gran Vía, Sol, Callao y ópera en Madrid.Cada residencia está organizada en régimen de piso compartido.Las residencias Easo son mixtas y en cada una d;http://www.esmadrid.com/sites/default/files/recursosturisticos/alojamientos/easo3.jpg;-3.708881000000;40.422100000000;;;Accommodation;Residencias universitarias,
1403;Residencia Universitaria Benito P&eacute,rez Gald&oacute,s;DemoEM;1403;La Residencia Universitaria Galdós, con 370 plazas, está en el corazón de la zona universitaria de Madrid, a unos minutos del Metro Metropolitano.Además de habitaciones dobles e individuales totalmente equipadas, entre sus instalaciones destaca;http://www.esmadrid.com/sites/default/files/recursosturisticos/alojamientos/residencia2.jpg;-3.718392000000;40.449100000000;;;Accommodation;Residencias universitarias,
1404;Aparthotel Th la Florida;DemoEM;1404;Este alojamiento forma parte de los hoteles de guardia de la Comunidad de Madrid considerados como servicio esencial según la Orden TMA/305/2020 de 30 de marzo, del Ministerio de Transportes, Movilidad y Agenda Urbana.Este aparthotel, situado a;http://www.esmadrid.com/sites/default/files/recursosturisticos/alojamientos/543849608_236201015540_adj.jpg;-3.801265000000;40.467724000000;;;Accommodation;Apartahoteles,
1405;Residencia Universitaria Porta Coeli;DemoEM;1405;Las Residencias de Hermanas Trinitarias han sido creadas para dar respuesta a las necesidades de convivencia y formación de las jóvenes que, desplazadas del hogar familiar o careciendo del mismo por diferentes motivos, buscan alojamiento, orien;http://www.esmadrid.com/sites/default/files/recursosturisticos/alojamientos/trinitarias2.jpg;-3.700681000000;40.436840000000;;;Accommodation;Residencias universitarias,
1406;Aparthotel Th  Aravaca;DemoEM;1406;Este alojamiento forma parte de los hoteles de guardia de la Comunidad de Madrid considerados como servicio esencial según la Orden TMA/305/2020 de 30 de marzo, del Ministerio de Transportes, Movilidad y Agenda Urbana.El aparthotel Th Aravaca e;http://www.esmadrid.com/sites/default/files/recursosturisticos/alojamientos/nh_aravaca3.jpg;-3.799467000000;40.464210000000;;;Accommodation;Apartahoteles,
1407;Aparthotel G3 Gale&oacute,n;DemoEM;1407;Ubicado en el norte de la ciudad en una de las zonas empresariales más destacadas, junto al Paseo de la Castellana,&nbsp,este aparthotel es una opción idónea para viajes profesionales y de trabajo, vacaciones o largas estancias. El Apartahotel ;http://www.esmadrid.com/sites/default/files/recursosturisticos/alojamientos/g31.jpg;-3.699280500000;40.458738700000;;;Accommodation;Apartahoteles,
1408;Residencia Virgen del Pilar;DemoEM;1408;La Residencia &ldquo,Virgen del Pilar&rdquo,, pertenece a las Religiosas Misioneras de María Ianua Coeli.Cuenta con habitación individual y compartida con acceso a Internet, sala de TV, vídeo y DVD, capilla, lavadora con monedas, terraza, salas;http://www.esmadrid.com/sites/default/files/recursosturisticos/alojamientos/virgenmaria2.jpg;-3.683312000000;40.435660000000;;;Accommodation;Residencias universitarias,
1409;Residencia Universitaria El Pilar;DemoEM;1409;La residencia universitaria femenina &quot,El Pilar&quot, fue fundada en 1967 por las religiosas misioneras de María Ianua Coeli y está situada a tan solo 10 minutos de la Universidad Complutense y Somosaguas, y muy cerca de la Universidad Fran;http://www.esmadrid.com/sites/default/files/recursosturisticos/alojamientos/pilar2.jpg;-3.753567100000;40.458583000000;;;Accommodation;Residencias universitarias,
1410; Bluesense Madrid Genova;DemoEM;1410;Sus 80 apartamentos han sido remodelados recientemente y ofrecen una única estancia de estilo moderno y funcional llegando a alcanzar el tamaño de una Suite de la zona.Todos baños están equipados con una bañera, una ducha y artículos gratuitos ;http://www.esmadrid.com/sites/default/files/recursosturisticos/alojamientos/bluesense1.jpeg;-3.694697000000;40.428640000000;;;Accommodation;Apartahoteles,
1411;Tagaste Madrid;DemoEM;1411;Residencia universitaria ubicada en el barrio de Salamanca de Madrid, próxima a las bocas del metro de Goya, Príncipe de Vergara, Lista y Diego de León. Está bien comunicada a través de las líneas de autobuses urbanos de Madrid con los campus u;http://www.esmadrid.com/sites/default/files/recursosturisticos/alojamientos/piscina_interior2.jpg;-3.678506000000;40.426838000000;;;Accommodation;Residencias universitarias,
1412;Residencia Universitaria Presentaci&oacute,n de Mar&iacute,a;DemoEM;1412;Centro universitario femenino dirigido por la Congregación de la Presentación de María que se encuentra situado en el barrio de Chamberí.Ofrece habitaciones individuales que incluyen lavabo y ducha. Los servicios son comunes. Los domingos sólo ;http://www.esmadrid.com/sites/default/files/recursosturisticos/alojamientos/PresentaciondeMaria_1396627770.119.jpg;-3.716340300000;40.445170500000;;;Accommodation;Residencias universitarias,
1413;Residencia Universitaria Verbo Encarnado ;DemoEM;1413;Dirigida por la Congregación de Religiosas del Verbo Encarnado, esta residencia femenina ofrece pensión completa en habitaciones individuales que incluyen baño. También disponen de sala de estudios y de televisión y servicio de lavandería autom;http://www.esmadrid.com/sites/default/files/x10.jpg;-3.700432000000;40.446090000000;;;Accommodation;Residencias universitarias,
1414;Residencia Universitaria Nebrija-Chamber&iacute,;DemoEM;1414;Ubicada en el entorno de Moncloa, permite acudir rápidamente a los campus de la Universidad Nebrija y andando a CUNEF y Comillas (ICADE e ICAI). Fácil acceso a la Universidad Politécnica de Madrid (UPM) en especial Industriales, CEU, Universida;http://www.esmadrid.com/sites/default/files/recursosturisticos/alojamientos/nebrija2.jpg;-3.698915000000;40.429530000000;;;Accommodation;Residencias universitarias,
